time stamp, twistx, twisty, twistz, odomx, odomy, odom_theta, odom_vx, odom_vy, odom_w, roll, pitch, yaw, accl_x, accl_y, accl_z
0.0100501, 0,0,0, 0.0277323,0.00735687,0.112705,-0.119467,-0.0949067,-0.497779, 0.00733038,-0.0253073,0.185179,0.294199,0.0686466,10.3166
0.0200517, 0,0,0, 0.029093,0.00658036,0.117964,-0.126229,-0.0927935,-0.525955, 0.00680678,-0.0251327,0.194081,-0.0490333,0.17652,9.97336
0.030072, 0,0,0, 0.0305477,0.00582028,0.123599,-0.135246,-0.0929813,-0.563523, 0.00628319,-0.0258309,0.213105,0.333426,0.451106,8.32585
0.0400407, -0,0.00104887,1, 0.0320825,0.00500867,0.129516,-0.142008,-0.0998845,-0.591699, 0.00628319,-0.0260054,0.223053,0.1471,0.02942,9.24767
0.0501268, -0,0.00104887,1, 0.0336339,0.00411678,0.135433,-0.142008,-0.108901,-0.591699, 0.00575959,-0.0258309,0.233176,0.254973,0.215746,9.78704
0.0600541, -0,0.00104887,1, 0.0350477,0.0027855,0.140505,-0.121721,-0.151306,-0.507171, 0.00541052,-0.0254818,0.243299,-0.0490333,0.17652,10.1695
0.0702033, -0,0.00104887,1, 0.0363207,0.00137482,0.144919,-0.105942,-0.15774,-0.441427, 0.00541052,-0.0253073,0.253771,-0.127486,-0.0490333,10.9736
0.0801954, -0,0.00104887,1, 0.0378152,0.000520445,0.150555,-0.135246,-0.106506,-0.563523, 0.00541052,-0.0253073,0.253771,-0.127486,-0.0490333,10.9736
0.0901005, -0,0.00104887,1, 0.0394884,-0.00041547,0.156847,-0.151024,-0.118105,-0.629268, 0.00523599,-0.0258309,0.264417,0.451106,-0.00980665,10.7873
0.100061, -0,0.00104887,1, 0.0411184,-0.00146171,0.162858,-0.146516,-0.127028,-0.610483, 0.00453786,-0.026529,0.274889,0.715885,0.137293,9.86549
0.11008, -0,0.00104887,1, 0.0427732,-0.00219912,0.169151,-0.151024,-0.100072,-0.629268, 0.00418879,-0.0270526,0.285885,0.451106,0.519752,8.97309
0.120082, -0,0.00104887,1, 0.0443111,-0.00315029,0.174786,-0.1375,-0.117823,-0.572915, 0.00401426,-0.0268781,0.296881,-0.127486,0.372653,9.66936
0.130087, -0,0.00104887,1, 0.0457755,-0.00403698,0.18014,-0.128483,-0.113127,-0.535347, 0.00331613,-0.0263545,0.307527,-0.00980665,0.294199,9.82626
0.140051, -0,0.00104887,1, 0.047281,-0.00486407,0.185681,-0.132991,-0.108713,-0.554131, 0.00244346,-0.0263545,0.329518,0.411879,0.333426,10.856
0.150061, -0,0.00104887,1, 0.0487368,-0.00576073,0.19094,-0.126229,-0.115334,-0.525955, 0.00244346,-0.0267035,0.340339,0.225553,0.254973,9.20844
0.160052, -0,0.00104887,1, 0.0501795,-0.00667577,0.196106,-0.123975,-0.117542,-0.516563, 0.00226893,-0.0267035,0.351509,-0.313813,0.372653,8.86521
0.170049, -0,0.00104887,1, 0.0515913,-0.00752112,0.201178,-0.121721,-0.110732,-0.507171, 0.00174533,-0.026529,0.362505,-0.313813,-0.00980665,9.74781
0.180138, -0,0.00104887,1, 0.0530883,-0.00852755,0.206437,-0.126229,-0.128859,-0.525955, 0.000872665,-0.0263545,0.373326,-0.549172,-0.735499,10.7089
0.190046, -0,0.00104887,1, 0.0545181,-0.00940237,0.211509,-0.121721,-0.11524,-0.507171, 0.000872665,-0.0263545,0.373326,-0.549172,-0.735499,10.7089
0.200071, -0,0.00104887,1, 0.0561776,-0.0104549,0.217332,-0.139754,-0.138157,-0.582307, 0.000872665,-0.0267035,0.384322,-0.0882598,-0.274586,8.51217
0.210057, -0,0.00104887,0.929824, 0.0578529,-0.0111277,0.223531,-0.151024,-0.100072,-0.629268, 0.0010472,-0.0274017,0.395492,0.715885,0.598206,9.40458
0.22005, -0,0.00104887,0.917439, 0.0593998,-0.0118181,0.229166,-0.135246,-0.101998,-0.563523, 0.000698132,-0.0274017,0.406313,0.372653,0.107873,10.395
0.230048, -0,0.00104887,0.876159, 0.060819,-0.0128282,0.233956,-0.114959,-0.130878,-0.478995, 0,-0.0268781,0.417134,0.608012,0.912018,10.5814
0.240048, -0,0.00104887,0.876159, 0.0622537,-0.0138752,0.238746,-0.114959,-0.135386,-0.478995, -0.0010472,-0.0263545,0.428129,-0.23536,0.451106,10.5814
0.250073, -0,0.00104887,0.843135, 0.0638167,-0.0144714,0.244475,-0.1375,-0.0952824,-0.572915, -0.00226893,-0.0272271,0.449422,0.1471,-0.0882598,11.3169
0.260042, -0,0.00104887,0.814239, 0.0654655,-0.0149236,0.250674,-0.14877,-0.0842467,-0.619876, -0.00261799,-0.0277507,0.460418,0.411879,-0.166713,7.90416
0.270039, -0,0.00104887,0.814239, 0.0671021,-0.0155778,0.256591,-0.144262,-0.102186,-0.601091, -0.00279253,-0.0279253,0.47089,-0.00980665,-0.353039,8.66908
0.280067, -0,0.00104887,0.814239, 0.0687126,-0.0164618,0.262132,-0.132991,-0.126746,-0.554131, -0.00279253,-0.0275762,0.481711,-0.00980665,0.294199,9.82626
0.290138, -0,0.00104887,0.814239, 0.0702242,-0.0173862,0.267204,-0.121721,-0.128765,-0.507171, -0.00296706,-0.0268781,0.492357,0.1471,-0.431493,10.0518
0.300057, -0,0.00104887,0.814239, 0.071629,-0.0182385,0.2719,-0.112705,-0.119561,-0.469603, -0.00296706,-0.0268781,0.492357,0.1471,-0.431493,10.0518
0.310142, -0,0.00104887,0.814239, 0.0731165,-0.0189471,0.277066,-0.123975,-0.108525,-0.516563, -0.00331613,-0.0267035,0.502829,0.529559,0.17652,11.817
0.320097, -0,0.00104887,0.810111, 0.0745829,-0.0192346,0.282607,-0.132991,-0.0681394,-0.554131, -0.00366519,-0.0268781,0.513476,0.490333,0.372653,10.1303
0.330094, -0,0.00104887,0.814239, 0.0760635,-0.0195573,0.288148,-0.132991,-0.0726475,-0.554131, -0.00418879,-0.0270526,0.524122,0.02942,0.372653,9.06135
0.340051, -0,0.00104887,0.814239, 0.0774613,-0.0198253,0.293408,-0.126229,-0.0657444,-0.525955, -0.00453786,-0.0272271,0.534594,0.225553,-0.00980665,9.51245
0.350059, -0,0.00104887,0.818367, 0.0788322,-0.0200705,0.298573,-0.123975,-0.0634433,-0.516563, -0.00488692,-0.0272271,0.545066,0.490333,-0.0882598,9.66936
0.360051, -0,0.00104887,0.818367, 0.0804313,-0.0204303,0.30449,-0.142008,-0.0818517,-0.591699, -0.00471239,-0.0280998,0.56601,0.333426,0.107873,8.89463
0.370152, -0,0.00104887,0.826623, 0.0822306,-0.0209568,0.310971,-0.155532,-0.104674,-0.648052, -0.00453786,-0.0286234,0.576657,-0.431493,0.137293,12.0131
0.380095, -0,0.00104887,0.834879, 0.0837469,-0.0213941,0.316418,-0.130737,-0.0883792,-0.544739, -0.00401426,-0.0284489,0.586954,0.568786,0.0686466,7.6688
0.390025, -0,0.00104887,0.843135, 0.0850918,-0.0220892,0.320833,-0.105942,-0.108149,-0.441427, -0.00366519,-0.0282743,0.597252,-0.313813,-0.166713,10.2774
0.400155, -0,0.00104887,0.843135, 0.0864394,-0.0229912,0.324965,-0.0991801,-0.128295,-0.41325, -0.00436332,-0.0280998,0.607025,0.333426,-0.127486,10.7481
0.41004, -0,0.00104887,0.839007, 0.087718,-0.0235323,0.329285,-0.103688,-0.0923239,-0.432034, -0.00436332,-0.0280998,0.607025,0.333426,-0.127486,10.7481
0.420043, -0,0.00104887,0.843135, 0.0891561,-0.0239696,0.334357,-0.121721,-0.0881914,-0.507171, -0.00488692,-0.0282743,0.616974,0.107873,0.215746,9.05154
0.430047, -0,0.00104887,0.847263, 0.0905684,-0.0244562,0.339241,-0.117213,-0.0926056,-0.488387, -0.00541052,-0.0287979,0.626748,0.990472,-0.0490333,9.2869
0.440164, -0,0.00104887,0.847263, 0.0919264,-0.0249788,0.343843,-0.110451,-0.0947188,-0.460211, -0.00558505,-0.0289725,0.636347,0.254973,0.254973,9.09076
0.450089, -0,0.00104887,0.863775, 0.0931721,-0.0255102,0.347976,-0.0991801,-0.09223,-0.41325, -0.00575959,-0.0286234,0.646121,0.372653,0.333426,10.091
0.460069, -0,0.00104887,0.892671, 0.0943718,-0.0258385,0.352202,-0.101434,-0.0719901,-0.422642, -0.00610865,-0.0284489,0.65572,0.676659,-0.166713,10.3264
0.470065, -0,0.00104887,0.925695, 0.0957591,-0.0261445,0.35718,-0.119467,-0.0768739,-0.497779, -0.00645772,-0.0286234,0.665145,0.411879,0.333426,10.0126
0.480084, -0,0.00104887,0.946336, 0.0971371,-0.0265431,0.36197,-0.114959,-0.0857964,-0.478995, -0.00715585,-0.0287979,0.68382,0.1471,0.215746,9.40458
0.490086, -0,0.00104887,0.962848, 0.0983895,-0.026981,0.366196,-0.101434,-0.0855146,-0.422642, -0.00715585,-0.0284489,0.692896,0.490333,0.137293,9.89491
0.500111, -0,0.00104887,0.971104, 0.0996175,-0.0274711,0.370235,-0.096926,-0.0899289,-0.403858, -0.00733038,-0.0282743,0.702146,0.490333,0.0686466,9.77723
0.510093, -0,0.00104887,0.97936, 0.100821,-0.0280139,0.374085,-0.0946719,-0.092136,-0.394466, -0.00733038,-0.0282743,0.702146,0.490333,0.0686466,9.77723
0.52009, -0,0.00104887,0.991744, 0.102046,-0.0283527,0.378312,-0.101434,-0.0764983,-0.422642, -0.00750492,-0.0280998,0.711396,0.333426,-0.0490333,9.74781
0.530057, -0,0.00104887,1, 0.10341,-0.0288507,0.38282,-0.108196,-0.096926,-0.450819, -0.00785398,-0.0277507,0.720472,-0.00980665,0.17652,9.98317
0.540051, -0,0.00104887,1, 0.104828,-0.0292266,0.387704,-0.117213,-0.0880974,-0.488387, -0.00820305,-0.0275762,0.729548,0.637432,-0.20594,9.86549
0.550049, -0,0.00104887,1, 0.106319,-0.0295918,0.39287,-0.123975,-0.0904924,-0.516563, -0.00890118,-0.0274017,0.738623,0.637432,-0.20594,9.63994
0.560079, -0,0.00104887,1, 0.107692,-0.0298994,0.39766,-0.114959,-0.0812882,-0.478995, -0.00942478,-0.0274017,0.747874,0.333426,-0.274586,10.1695
0.570048, -0,0.00104887,1, 0.109133,-0.0302958,0.402543,-0.117213,-0.0926056,-0.488387, -0.00959931,-0.0275762,0.757298,0.254973,-0.166713,10.5127
0.580043, -0,0.00104887,1, 0.110515,-0.0306607,0.407239,-0.112705,-0.0880036,-0.469603, -0.00959931,-0.0277507,0.766723,0.333426,-0.0882598,10.1303
0.590046, -0,0.00104887,1, 0.111918,-0.0310604,0.411935,-0.112705,-0.0925117,-0.469603, -0.00977384,-0.0277507,0.785573,0.372653,-0.0490333,8.97309
0.600042, -0,0.00104887,1, 0.113362,-0.0312656,0.417101,-0.123975,-0.0769679,-0.516563, -0.0102974,-0.0277507,0.795347,0.186326,0.17652,9.65955
0.610052, -0,0.00104887,1, 0.114852,-0.0316163,0.422173,-0.121721,-0.0926996,-0.507171, -0.0109956,-0.0275762,0.804946,0.0686466,0.0686466,9.5909
0.620044, -0,0.00104887,1, 0.116391,-0.032012,0.427338,-0.123975,-0.0995088,-0.516563, -0.0113446,-0.0270526,0.814894,0.411879,-0.274586,9.51245
0.630064, -0,0.00104887,1, 0.118001,-0.0322226,0.433068,-0.1375,-0.086266,-0.572915, -0.0113446,-0.0270526,0.814894,0.411879,-0.274586,9.51245
0.640053, -0,0.00104887,1, 0.11943,-0.0323564,0.438233,-0.123975,-0.0724597,-0.516563, -0.0113446,-0.026529,0.824843,0.02942,0.137293,10.1597
0.650087, -0,0.00104887,1, 0.120869,-0.0329238,0.442647,-0.108196,-0.110451,-0.450819, -0.0115192,-0.0261799,0.834791,0.1471,-0.431493,10.0126
0.660128, -0,0.00104887,1, 0.122328,-0.0331549,0.447719,-0.121721,-0.0836832,-0.507171, -0.0118682,-0.0260054,0.844914,0.254973,-0.166713,10.9736
0.670126, -0,0.00104887,1, 0.124086,-0.0332163,0.4542,-0.155532,-0.0821335,-0.648052, -0.0122173,-0.026529,0.855211,0.490333,-0.245166,10.6696
0.680051, -0,0.00104887,1, 0.125763,-0.0332046,0.460492,-0.151024,-0.0730232,-0.629268, -0.0122173,-0.0268781,0.865334,0.411879,-0.0490333,10.3558
0.690074, -0,0.00104887,1, 0.12738,-0.0330613,0.466785,-0.151024,-0.0594987,-0.629268, -0.0127409,-0.0270526,0.875981,0.1471,0.0686466,8.16894
0.70005, -0,0.00104887,1, 0.128824,-0.033217,0.471857,-0.121721,-0.079175,-0.507171, -0.0137881,-0.0258309,0.897099,0.529559,-0.20594,10.1695
0.710085, -0,-0,1, 0.130424,-0.0339163,0.476459,-0.110451,-0.135293,-0.460211, -0.0148353,-0.0254818,0.907397,0.608012,-0.166713,11.4346
0.720045, -0,0.00104887,1, 0.132151,-0.0347483,0.481249,-0.114959,-0.153419,-0.478995, -0.0150098,-0.0260054,0.917694,0.0686466,-0.431493,11.3169
0.730042, -0,0.00104887,1, 0.133883,-0.0355719,0.486039,-0.114959,-0.153419,-0.478995, -0.0150098,-0.0260054,0.917694,0.0686466,-0.431493,11.3169
0.74009, -0,0.00104887,1, 0.135554,-0.0357372,0.491862,-0.139754,-0.0930753,-0.582307, -0.0144862,-0.0268781,0.927992,0.411879,0.137293,9.17902
0.750047, -0,0.00104887,1, 0.137243,-0.0361628,0.497215,-0.128483,-0.117635,-0.535347, -0.0141372,-0.0268781,0.938464,0.490333,0.637432,7.70803
0.760114, -0,0.00104887,1, 0.138907,-0.0370006,0.501629,-0.105942,-0.153231,-0.441427, -0.0141372,-0.026529,0.948935,0.225553,-0.127486,9.10057
0.770037, -0,0.00104887,1, 0.140496,-0.0376428,0.506138,-0.108196,-0.132991,-0.450819, -0.0143117,-0.0260054,0.959582,0.490333,0.490333,10.8952
0.780059, -0,0.00104887,1, 0.142147,-0.0381959,0.511022,-0.117213,-0.128671,-0.488387, -0.0153589,-0.0254818,0.969879,0.107873,-0.0882598,10.2087
0.790116, -0,0.00104887,1, 0.14376,-0.038532,0.516187,-0.123975,-0.108525,-0.516563, -0.0164061,-0.0253073,0.980351,0.451106,-0.313813,10.4441
0.800091, -0,0.00104887,1, 0.145378,-0.0387294,0.521635,-0.130737,-0.0973956,-0.544739, -0.0171042,-0.0254818,0.990998,0.333426,-0.127486,10.0518
0.810049, -0,0.00104887,1, 0.14698,-0.0389789,0.526894,-0.126229,-0.10181,-0.525955, -0.0165806,-0.0258309,1.01229,0.294199,0.215746,8.32585
0.820048, -0,0.00104887,1, 0.148557,-0.0389507,0.532623,-0.1375,-0.0772496,-0.572915, -0.0169297,-0.0256563,1.02311,0.490333,0.17652,8.86521
0.830047, -0,0.00104887,1, 0.150183,-0.0387301,0.538916,-0.151024,-0.0640069,-0.629268, -0.0179769,-0.0254818,1.03376,0.490333,-0.0882598,9.85568
0.84004, -0,0.00104887,1, 0.151792,-0.0382996,0.545584,-0.160041,-0.0461619,-0.666836, -0.0179769,-0.0254818,1.03376,0.490333,-0.0882598,9.85568
0.850111, -0,0.00104887,1, 0.153515,-0.0380506,0.552253,-0.160041,-0.0687029,-0.666836, -0.0190241,-0.0251327,1.04458,0.0686466,0.02942,8.78676
0.860048, -0,0.00104887,1, 0.155268,-0.0386113,0.55723,-0.119467,-0.139989,-0.497779, -0.0195477,-0.0247837,1.05558,-0.00980665,-0.0490333,9.20844
0.870044, -0,0.00104887,1, 0.156984,-0.0397392,0.560799,-0.0856555,-0.18662,-0.356898, -0.0193732,-0.0240855,1.0664,0.186326,-0.0490333,10.4735
0.880061, -0,0.00104887,1, 0.158763,-0.0406147,0.56512,-0.103688,-0.168963,-0.432034, -0.0193732,-0.0233874,1.07722,-0.196133,-0.431493,11.6601
0.890094, -0,0.00104887,1, 0.160534,-0.0409607,0.570567,-0.130737,-0.128953,-0.544739, -0.0198968,-0.0228638,1.08821,0.637432,0.294199,10.9246
0.900056, -0,0.00104887,1, 0.162304,-0.0408749,0.576954,-0.155532,-0.0866417,-0.648052, -0.0207694,-0.0226893,1.09903,0.225553,-0.274586,10.0224
0.910078, -0,0.00104887,1, 0.164014,-0.0408946,0.582871,-0.142008,-0.0953763,-0.591699, -0.0216421,-0.0228638,1.1102,0.529559,-0.392266,7.98261
0.920044, -0,0.00104887,1, 0.165543,-0.0408334,0.588318,-0.130737,-0.0793628,-0.544739, -0.0214676,-0.0225147,1.13237,0.411879,0.372653,10.0518
0.930131, -0,0.00104887,1, 0.167007,-0.040751,0.593578,-0.126229,-0.0747608,-0.525955, -0.0216421,-0.0221657,1.14354,0.294199,-0.274586,10.9344
0.940042, -0,0.00104887,1, 0.168446,-0.0406235,0.598837,-0.126229,-0.0702525,-0.525955, -0.0221657,-0.0221657,1.15471,0.490333,0.215746,9.40458
0.950158, -0,0.00104887,1, 0.17018,-0.0403203,0.605506,-0.160041,-0.0732111,-0.666836, -0.0225147,-0.0228638,1.16571,0.254973,0.17652,9.65955
0.960067, -0,0.00104887,1, 0.17207,-0.0400351,0.612644,-0.171311,-0.0847163,-0.713796, -0.0225147,-0.0228638,1.16571,0.254973,0.17652,9.65955
0.970108, -0,0.00104887,1, 0.1738,-0.0400616,0.618467,-0.139754,-0.1066,-0.582307, -0.0228638,-0.0232129,1.17653,0.225553,0.107873,9.94394
0.98006, -0,0.00104887,1, 0.175349,-0.0403675,0.622975,-0.108196,-0.114959,-0.450819, -0.0225147,-0.0226893,1.18735,0.225553,-0.735499,10.3264
0.990043, -0,0.00104887,1, 0.176836,-0.0404632,0.627765,-0.114959,-0.0948128,-0.478995, -0.0218166,-0.0216421,1.19799,0.490333,0.411879,10.091
1.00005, -0,0.00104887,1, 0.178429,-0.0405051,0.633024,-0.126229,-0.0973017,-0.525955, -0.0221657,-0.021293,1.20882,0.490333,-0.274586,10.1989
1.01005, -0,0.00104887,1, 0.180093,-0.04071,0.638096,-0.121721,-0.11524,-0.507171, -0.0230383,-0.0216421,1.21964,0.637432,-0.274586,10.5814
1.02006, -0,0.00104887,1, 0.181993,-0.0410705,0.643543,-0.130737,-0.142477,-0.544739, -0.0235619,-0.0219911,1.23028,0.490333,-0.00980665,9.52226
1.03006, -0,0.00104887,1, 0.183767,-0.0414017,0.648615,-0.121721,-0.133273,-0.507171, -0.023911,-0.0218166,1.2521,0.372653,-0.00980665,10.395
1.0401, -0,0.00104887,1, 0.185456,-0.0416477,0.653593,-0.119467,-0.121956,-0.497779, -0.0242601,-0.0214676,1.26292,0.676659,-0.20594,9.55168
1.05004, -0,0.00104887,1, 0.186881,-0.0414655,0.658759,-0.123975,-0.0724597,-0.516563, -0.0247837,-0.0214676,1.27374,0.411879,0.02942,9.63013
1.06009, -0,0.00104887,1, 0.188404,-0.0412573,0.6643,-0.132991,-0.0771557,-0.554131, -0.0247837,-0.0214676,1.27374,0.411879,0.02942,9.63013
1.07007, -0,0.00104887,1, 0.190186,-0.0410417,0.670686,-0.153278,-0.093357,-0.63866, -0.0260054,-0.0216421,1.28456,0.1471,-0.392266,9.56148
1.08008, -0,0.00104887,1, 0.191935,-0.0410658,0.676322,-0.135246,-0.111014,-0.563523, -0.0267035,-0.0218166,1.29503,-0.0490333,-0.166713,9.55168
1.09005, -0,0.00104887,1, 0.193589,-0.0410691,0.681675,-0.128483,-0.104111,-0.535347, -0.0263545,-0.0214676,1.30568,0.254973,-0.313813,10.2774
1.10007, -0,0.00104887,1, 0.19525,-0.0415735,0.685714,-0.096926,-0.144027,-0.403858, -0.0256563,-0.0204204,1.31633,1.13757,-0.0490333,9.89491
1.11007, -0,0.00104887,1, 0.196792,-0.0419946,0.689564,-0.0924178,-0.130409,-0.385074, -0.0251327,-0.0198968,1.3268,0.186326,-0.166713,11.3561
1.12006, -0,0.00104887,1, 0.198337,-0.0417743,0.695106,-0.132991,-0.0816639,-0.554131, -0.0256563,-0.0202458,1.33762,0.294199,-0.353039,11.513
1.13004, -0,0.00104887,1, 0.19987,-0.0413221,0.701211,-0.146516,-0.0639129,-0.610483, -0.0267035,-0.0209439,1.34862,0.0686466,-0.353039,9.5909
1.14004, -0,0.00104887,1, 0.201625,-0.0412298,0.707034,-0.139754,-0.1066,-0.582307, -0.0277507,-0.0209439,1.37026,0.833565,0.215746,9.40458
1.15004, -0,0.00104887,1, 0.203153,-0.0411401,0.712105,-0.123975,-0.0904924,-0.516563, -0.0279253,-0.0204204,1.38108,0.1471,-0.735499,10.2479
1.16005, -0,0.00104887,1, 0.204695,-0.0408535,0.717741,-0.135246,-0.0794568,-0.563523, -0.0280998,-0.0202458,1.3919,0.1471,-0.392266,10.3166
1.17012, -0,0.00104887,1, 0.206465,-0.0405114,0.724221,-0.155532,-0.0911499,-0.648052, -0.0287979,-0.0205949,1.40272,0.451106,-0.0882598,10.395
1.18005, -0,0.00104887,1, 0.208177,-0.0400275,0.730889,-0.160041,-0.0777193,-0.666836, -0.0287979,-0.0205949,1.40272,0.451106,-0.0882598,10.395
1.19005, -0,0.00104887,1, 0.209973,-0.0396957,0.73737,-0.155532,-0.0956581,-0.648052, -0.029147,-0.0207694,1.41372,-0.23536,-0.20594,8.4043
1.20005, -0,0.00104887,1, 0.211706,-0.0398559,0.742254,-0.117213,-0.128671,-0.488387, -0.0289725,-0.0205949,1.42454,-0.0490333,-0.166713,9.27709
1.21006, -0,0.00104887,1, 0.213262,-0.0403155,0.745729,-0.0834014,-0.139237,-0.347506, -0.0286234,-0.0195477,1.43501,0.833565,-0.20594,10.9246
1.2201, -0,0.00104887,1, 0.214787,-0.0407999,0.749016,-0.0788933,-0.139143,-0.328722, -0.0284489,-0.0188496,1.44566,-0.196133,-0.166713,11.464
1.23005, -0,0.00104887,1, 0.21625,-0.040517,0.754276,-0.126229,-0.0792689,-0.525955, -0.0289725,-0.0190241,1.45665,0.0686466,0.294199,10.9736
1.24004, -0,0.00104887,1, 0.217911,-0.0400755,0.760568,-0.151024,-0.0820396,-0.629268, -0.0300197,-0.0195477,1.4673,-0.0882598,-0.666852,8.66908
1.25005, -0,0.00104887,1, 0.219816,-0.0399789,0.766579,-0.144262,-0.124726,-0.601091, -0.0310669,-0.0198968,1.47829,0.333426,-0.392266,7.78648
1.26009, -0,0.00104887,1, 0.221935,-0.0402557,0.772121,-0.132991,-0.167319,-0.554131, -0.0315905,-0.018675,1.49994,-0.0490333,-0.509946,10.3264
1.27005, -0,0.00104887,1, 0.223423,-0.0399714,0.77738,-0.126229,-0.0837771,-0.525955, -0.0321141,-0.0181514,1.51093,0.294199,-0.470719,10.9246
1.28005, -0,0.00104887,1, 0.224848,-0.0395203,0.782921,-0.132991,-0.0681394,-0.554131, -0.0321141,-0.0181514,1.51093,0.294199,-0.470719,10.9246
1.29004, -0,0.00104887,1, 0.226495,-0.0390946,0.789026,-0.146516,-0.0864539,-0.610483, -0.0324631,-0.0185005,1.52193,0.794339,-0.127486,10.9638
1.30006, -0,0.00104887,1, 0.228171,-0.0387538,0.794943,-0.142008,-0.0953763,-0.591699, -0.0326377,-0.0190241,1.53275,0.637432,0.17652,8.02184
1.31005, -0,0.00104887,1, 0.229782,-0.038941,0.799076,-0.0991801,-0.128295,-0.41325, -0.0324631,-0.0188496,1.54374,-0.127486,-0.431493,9.47322
1.32005, -0,0.00104887,1, 0.231427,-0.0393743,0.802551,-0.0834014,-0.148254,-0.347506, -0.0322886,-0.0176278,1.55439,0.608012,-0.20594,10.9638
1.33009, -0,0.00104887,1, 0.233234,-0.0396735,0.806871,-0.103688,-0.15093,-0.432034, -0.0324631,-0.0165806,1.56504,0.676659,0.107873,11.513
1.34005, -0,0.00104887,1, 0.234839,-0.0392723,0.812694,-0.139754,-0.0885671,-0.582307, -0.0333358,-0.0165806,1.57586,0.372653,-0.20594,10.7481
1.35004, -0,0.00104887,1, 0.236699,-0.0388559,0.819269,-0.157787,-0.106975,-0.657444, -0.0340339,-0.0174533,1.58668,0.0686466,-0.470719,8.94367
1.36012, -0,0.00104887,1, 0.23859,-0.0384896,0.825749,-0.155532,-0.113691,-0.648052, -0.034383,-0.0176278,1.59715,0.872792,-0.245166,8.56121
1.37009, -0,0.00104887,1, 0.240414,-0.0380818,0.832136,-0.155532,-0.104674,-0.648052, -0.0331613,-0.0158825,1.61844,0.608012,-0.431493,10.6598
1.38004, -0,0.00104887,1, 0.242316,-0.0380705,0.837489,-0.128483,-0.140176,-0.535347, -0.0328122,-0.0150098,1.62892,0.490333,-0.549172,11.5032
1.39015, -0,0.00104887,1, 0.244248,-0.038016,0.843031,-0.132991,-0.14027,-0.554131, -0.0322886,-0.0148353,1.63974,0.490333,-0.245166,10.8167
1.4001, -0,0.00104887,1, 0.246508,-0.03806,0.849135,-0.146516,-0.172109,-0.610483, -0.0322886,-0.0148353,1.63974,0.490333,-0.245166,10.8167
1.41005, -0,0.00104887,1, 0.248739,-0.0381553,0.854958,-0.139754,-0.174223,-0.582307, -0.0319395,-0.0151844,1.65038,0.372653,-0.166713,8.8554
1.42002, -0,0.00104887,1, 0.2502,-0.0377804,0.860124,-0.123975,-0.0859842,-0.516563, -0.0319395,-0.0151844,1.66086,0.225553,-0.0490333,8.60043
1.4301, -0,0.00104887,1, 0.252192,-0.0381218,0.864444,-0.103688,-0.173471,-0.432034, -0.0321141,-0.0146608,1.67133,0.715885,-0.735499,10.4735
1.44008, -0,0.00104887,1, 0.253921,-0.0379033,0.869798,-0.128483,-0.117635,-0.535347, -0.0326377,-0.0139626,1.6818,0.490333,0.02942,9.90472
1.45011, -0,0.00104887,1, 0.25566,-0.0374207,0.875997,-0.14877,-0.102279,-0.619876, -0.0336849,-0.0136136,1.69245,-0.0882598,-0.00980665,11.464
1.46005, -0,0.00104887,1, 0.257367,-0.0369616,0.882008,-0.146516,-0.0999784,-0.610483, -0.034383,-0.013439,1.70309,0.294199,-0.431493,10.9344
1.47005, -0,0.00104887,1, 0.259171,-0.0365149,0.888206,-0.14877,-0.111296,-0.619876, -0.0338594,-0.01309,1.71374,-0.196133,0.558979,8.82598
1.48008, -0,0.00104887,1, 0.261142,-0.0364852,0.893466,-0.128483,-0.149193,-0.535347, -0.0322886,-0.0120428,1.73486,0.294199,-0.245166,9.77723
1.49005, -0,0.00104887,1, 0.262409,-0.035882,0.898725,-0.126229,-0.0612362,-0.525955, -0.0324631,-0.0115192,1.74568,0.411879,-0.313813,10.2774
1.50007, -0,0.00104887,1, 0.263935,-0.0353073,0.904549,-0.139754,-0.0840589,-0.582307, -0.0324631,-0.0115192,1.74568,0.411879,-0.313813,10.2774
1.51005, -0,0.00104887,1, 0.265525,-0.0344613,0.911405,-0.164549,-0.073305,-0.68562, -0.0329867,-0.0111701,1.75598,-0.0882598,0.02942,9.2869
1.52005, -0,0.00104887,1, 0.267232,-0.0338126,0.917885,-0.155532,-0.0956581,-0.648052, -0.0331613,-0.0115192,1.7668,0.02942,-0.166713,9.56148
1.53006, -0,0.00104887,1, 0.268962,-0.0336276,0.922863,-0.119467,-0.126464,-0.497779, -0.0329867,-0.0113446,1.77744,-0.23536,-0.313813,10.042
1.54007, -0,0.00104887,1, 0.270707,-0.0335595,0.927465,-0.110451,-0.135293,-0.460211, -0.0326377,-0.0106465,1.78792,0.225553,-0.549172,10.1989
1.55005, -0,0.00104887,1, 0.272527,-0.0333134,0.932819,-0.128483,-0.13116,-0.535347, -0.0328122,-0.00994838,1.79821,-0.509946,-0.0490333,11.2384
1.56004, -0,0.00104887,1, 0.274041,-0.0327496,0.938454,-0.135246,-0.0884731,-0.563523, -0.0333358,-0.00959931,1.80868,0.490333,-0.0882598,9.94394
1.57005, -0,0.00104887,1, 0.275625,-0.0322304,0.944089,-0.135246,-0.0974895,-0.563523, -0.0336849,-0.00959931,1.81916,0.411879,-0.470719,8.66908
1.58005, -0,0.00104887,1, 0.277129,-0.0316183,0.949818,-0.1375,-0.086266,-0.572915, -0.0335103,-0.00942478,1.82963,0.294199,0.137293,9.16922
1.59004, -0,0.00104887,1, 0.278754,-0.0311697,0.955266,-0.130737,-0.106412,-0.544739, -0.0331613,-0.00855211,1.85092,0.490333,-0.00980665,10.2087
1.60005, -0,0.00104887,1, 0.280281,-0.0307281,0.960431,-0.123975,-0.0995088,-0.516563, -0.0331613,-0.00820305,1.86139,-0.0882598,-0.0882598,9.47322
1.6101, -0,0.00104887,1, 0.281663,-0.0302068,0.965503,-0.121721,-0.0836832,-0.507171, -0.0331613,-0.00820305,1.86139,-0.0882598,-0.0882598,9.47322
1.62005, -0,0.00104887,1, 0.283212,-0.0297129,0.970856,-0.128483,-0.0996027,-0.535347, -0.0329867,-0.00820305,1.87239,0.0686466,0.137293,9.06135
1.63006, -0,0.00104887,1, 0.284652,-0.0291657,0.976116,-0.126229,-0.0882853,-0.525955, -0.0331613,-0.00820305,1.88304,-0.274586,0.107873,9.17902
1.64008, -0,0.00104887,1, 0.286253,-0.0286123,0.981751,-0.135246,-0.101998,-0.563523, -0.0335103,-0.00785398,1.89351,0.0686466,-0.392266,9.36535
1.65005, -0,0.00104887,1, 0.288131,-0.0283178,0.987105,-0.128483,-0.140176,-0.535347, -0.0340339,-0.00750492,1.90398,0.294199,-0.392266,9.82626
1.66011, -0,0.00104887,1, 0.290115,-0.0280563,0.992552,-0.130737,-0.151494,-0.544739, -0.034383,-0.00715585,1.91445,0.608012,-0.353039,10.856
1.67009, -0,0.00104887,1, 0.291657,-0.0273902,0.998375,-0.139754,-0.0930753,-0.582307, -0.0347321,-0.00698132,1.9251,0.02942,0.02942,12.3172
1.68004, -0,0.00104887,1, 0.293118,-0.0266665,1.0042,-0.139754,-0.0840589,-0.582307, -0.0345575,-0.00663225,1.93574,0.107873,-0.20594,9.27709
1.69005, -0,0.00104887,1, 0.294849,-0.0261339,1.00993,-0.1375,-0.117823,-0.572915, -0.0338594,-0.00645772,1.94657,0.225553,0.215746,7.90416
1.70006, -0,0.00104887,1, 0.296565,-0.025691,1.01528,-0.128483,-0.122144,-0.535347, -0.0336849,-0.00593412,1.96786,0.372653,-0.274586,9.66936
1.71015, -0,0.00104887,1, 0.297983,-0.0249499,1.02101,-0.1375,-0.0817578,-0.572915, -0.0342085,-0.00523599,1.97868,0.0686466,0.0686466,10.0518
1.72011, -0,0.00104887,1, 0.299392,-0.0240393,1.0273,-0.151024,-0.0730232,-0.629268, -0.0342085,-0.00523599,1.97868,0.0686466,0.0686466,10.0518
1.73007, -0,0.00104887,1, 0.300633,-0.0229964,1.03369,-0.155532,-0.0505762,-0.648052, -0.0349066,-0.00488692,1.98915,0.02942,-0.666852,10.5127
1.74005, -0,0.00104887,1, 0.301944,-0.022122,1.03961,-0.144262,-0.06612,-0.601091, -0.0347321,-0.00488692,1.99997,0.225553,-0.431493,9.63994
1.75006, -0,0.00104887,1, 0.303265,-0.0215622,1.0444,-0.114959,-0.0857964,-0.478995, -0.0338594,-0.00453786,2.01079,0.02942,-0.0490333,9.16922
1.76006, -0,0.00104887,1, 0.304669,-0.0212025,1.04862,-0.101434,-0.103547,-0.422642, -0.0335103,-0.00401426,2.02109,0.451106,-0.0490333,10.2087
1.77005, -0,0.00104887,1, 0.306369,-0.0209548,1.05304,-0.108196,-0.132991,-0.450819, -0.0338594,-0.00366519,2.03174,0.1471,-0.431493,10.552
1.78011, -0,0.00104887,1, 0.308048,-0.0203772,1.05858,-0.132991,-0.117729,-0.554131, -0.0347321,-0.00366519,2.04256,0.451106,-0.127486,10.3656
1.79005, -0,0.00104887,1, 0.309869,-0.0195865,1.06515,-0.157787,-0.1205,-0.657444, -0.0352557,-0.00366519,2.05321,0.254973,-0.353039,10.4637
1.80008, -0,0.00104887,1, 0.311914,-0.0188835,1.07182,-0.160041,-0.145342,-0.666836, -0.0349066,-0.00331613,2.0642,0.254973,0.254973,9.31632
1.81006, -0,0.00104887,1, 0.313428,-0.0180885,1.07774,-0.142008,-0.0953763,-0.591699, -0.0335103,-0.00226893,2.08584,0.0686466,-0.274586,9.60071
1.82004, -0,0.00104887,1, 0.314978,-0.0173057,1.08365,-0.142008,-0.0998845,-0.591699, -0.0335103,-0.00174533,2.09666,0.02942,0.02942,9.81646
1.83004, -0,0.00104887,1, 0.316158,-0.0161946,1.09004,-0.155532,-0.0505762,-0.648052, -0.0335103,-0.00174533,2.09666,0.02942,0.02942,9.81646
1.8401, -0,0.00104887,1, 0.317122,-0.0149421,1.09652,-0.155532,-0.0280353,-0.648052, -0.0338594,-0.00122173,2.10749,0.372653,-0.20594,9.09076
1.85005, -0,0.00104887,1, 0.318286,-0.013916,1.10253,-0.144262,-0.0571037,-0.601091, -0.0336849,-0.0010472,2.11831,0.107873,0.02942,9.1398
1.86005, -0,0.00104887,1, 0.31974,-0.0133854,1.10723,-0.112705,-0.106036,-0.469603, -0.0331613,-0.000523599,2.12913,0.1471,0.0686466,9.93414
1.87006, -0,0.00104887,1, 0.321028,-0.012868,1.11155,-0.103688,-0.0923239,-0.432034, -0.0333358,0.000174533,2.13995,-0.0882598,-0.245166,10.3558
1.88006, -0,0.00104887,1, 0.322041,-0.0122357,1.11578,-0.101434,-0.0629737,-0.422642, -0.0340339,0.000698132,2.15042,0.451106,0.02942,10.6598
1.89009, -0,0.00104887,1, 0.323092,-0.0114186,1.12075,-0.119467,-0.0588412,-0.497779, -0.0349066,0.000523599,2.16124,0.02942,-0.166713,10.1303
1.90009, -0,0.00104887,1, 0.324536,-0.0105609,1.12658,-0.139754,-0.0930753,-0.582307, -0.0359538,-0.000349066,2.17224,-0.353039,-0.166713,9.24767
1.91009, -0,0.00104887,1, 0.325994,-0.00965429,1.13259,-0.144262,-0.0931692,-0.601091, -0.0368264,-0.00122173,2.18306,-0.196133,-0.392266,8.32585
1.92002, -0,0.00104887,1, 0.327366,-0.00870093,1.1386,-0.144262,-0.0841528,-0.601091, -0.0371755,-0.000174533,2.20453,0.0686466,0.215746,10.3264
1.93004, -0,0.00104887,1, 0.328628,-0.00764235,1.1448,-0.14877,-0.0707221,-0.619876, -0.0366519,0.000872665,2.21535,0.254973,-0.166713,10.091
1.94006, -0,0.00104887,1, 0.329667,-0.00645378,1.15109,-0.151024,-0.0459741,-0.629268, -0.0366519,0.000872665,2.21535,0.254973,-0.166713,10.091
1.95009, -0,0.00104887,1, 0.33108,-0.00545249,1.15729,-0.151024,-0.0865478,-0.629268, -0.0363028,0.0010472,2.22617,-0.127486,-0.0882598,9.69878
1.96005, -0,0.00104887,1, 0.332514,-0.00460171,1.16292,-0.135246,-0.0974895,-0.563523, -0.0357792,0.00122173,2.23716,-0.578592,-0.00980665,8.78676
1.97002, -0,0.00104887,1, 0.334106,-0.00398483,1.1679,-0.119467,-0.121956,-0.497779, -0.0356047,0.00122173,2.24781,0.529559,-0.245166,8.47295
1.98004, -0,0.00104887,1, 0.335796,-0.00335386,1.17307,-0.123975,-0.131066,-0.516563, -0.0357792,0.0015708,2.25828,0.411879,-0.274586,10.3166
1.99005, -0,0.00104887,1, 0.337228,-0.00250994,1.17861,-0.132991,-0.0996967,-0.554131, -0.0364774,0.0020944,2.26893,0.1471,-0.509946,11.0129
2.00006, -0,0.00104887,1, 0.338518,-0.00140663,1.1849,-0.151024,-0.0775314,-0.629268, -0.0368264,0.00226893,2.27992,-0.313813,-0.166713,10.0224
2.01009, -0,0.00104887,1, 0.339932,-0.000274912,1.19148,-0.157787,-0.0889428,-0.657444, -0.0368264,0.00226893,2.29092,0.294199,-0.20594,8.44353
2.02004, -0,0.00104887,1, 0.341576,0.000554075,1.19721,-0.1375,-0.122331,-0.572915, -0.0368264,0.00279253,2.30174,0.608012,-0.245166,9.02212
2.03005, -0,0.00104887,1, 0.343276,0.00124703,1.20246,-0.126229,-0.133367,-0.525955, -0.0364774,0.00401426,2.32321,-0.0882598,-0.470719,10.1597
2.04006, -0,0.00104887,1, 0.344489,0.00225514,1.20819,-0.1375,-0.0772496,-0.572915, -0.0366519,0.00436332,2.33403,0.1471,-0.245166,10.7481
2.05005, -0,0.00104887,1, 0.345526,0.00357522,1.21486,-0.160041,-0.0506701,-0.666836, -0.0366519,0.00436332,2.33403,0.1471,-0.245166,10.7481
2.06005, -0,0.00104887,1, 0.346333,0.00507971,1.22191,-0.169057,-0.0238089,-0.704404, -0.0366519,0.00436332,2.34468,-0.0882598,-0.313813,10.2381
2.07006, -0,0.00104887,1, 0.347604,0.0062513,1.22829,-0.153278,-0.0798325,-0.63866, -0.0361283,0.00418879,2.35515,0.294199,-0.0490333,8.74753
2.08005, -0,0.00104887,1, 0.349096,0.00701457,1.23336,-0.123975,-0.113033,-0.516563, -0.0354302,0.00436332,2.36579,0.294199,0.137293,8.32585
2.09006, -0,0.00104887,1, 0.350553,0.00770058,1.23806,-0.112705,-0.115053,-0.469603, -0.0352557,0.00506145,2.37627,0.02942,-0.313813,10.6598
2.10005, -0,0.00104887,1, 0.352139,0.00849164,1.24332,-0.126229,-0.124351,-0.525955, -0.0356047,0.00610865,2.38656,-0.431493,-0.274586,10.856
2.11005, -0,0.00104887,1, 0.35348,0.00949094,1.24905,-0.1375,-0.0952824,-0.572915, -0.0363028,0.00680678,2.39721,-0.127486,-0.431493,9.69878
2.12004, -0,0.00104887,1, 0.354999,0.0102709,1.25412,-0.121721,-0.119749,-0.507171, -0.0363028,0.00698132,2.40786,0.107873,0.02942,8.86521
2.1301, -0,0.00104887,1, 0.356513,0.0109874,1.25891,-0.114959,-0.121862,-0.478995, -0.0359538,0.00698132,2.41833,0.0686466,-0.696272,9.74781
2.14006, -0,0.00104887,1, 0.358039,0.011754,1.26389,-0.119467,-0.121956,-0.497779, -0.0361283,0.00715585,2.42897,0.254973,0.215746,10.2872
2.15005, -0,0.00104887,1, 0.359144,0.0129192,1.2699,-0.144262,-0.0706282,-0.601091, -0.0363028,0.00750492,2.45009,0.1471,-0.627626,9.47322
2.16007, -0,0.00104887,1, 0.360142,0.0141455,1.276,-0.146516,-0.0594047,-0.610483, -0.0363028,0.00750492,2.45009,0.1471,-0.627626,9.47322
2.17004, -0,0.00104887,1, 0.361218,0.015423,1.28239,-0.153278,-0.0663079,-0.63866, -0.0361283,0.00767945,2.46074,0.107873,-0.696272,8.74753
2.18006, -0,0.00104887,1, 0.362808,0.0164129,1.28821,-0.139754,-0.124633,-0.582307, -0.0359538,0.00785398,2.47139,0.294199,0.02942,9.86549
2.19009, -0,0.00104887,1, 0.36505,0.0168698,1.29263,-0.105942,-0.202821,-0.441427, -0.0352557,0.00802851,2.48168,0.225553,-0.00980665,10.1695
2.20006, -0,0.00104887,1, 0.366698,0.0174807,1.29695,-0.103688,-0.141914,-0.432034, -0.0349066,0.00872665,2.49233,0.0686466,-0.20594,10.9638
2.21008, -0,0.00104887,1, 0.367991,0.0183374,1.30183,-0.117213,-0.101622,-0.488387, -0.0356047,0.00977384,2.5028,0.225553,0.372653,10.8854
2.22014, -0,0.00104887,1, 0.369185,0.0194372,1.30756,-0.1375,-0.086266,-0.572915, -0.0366519,0.010472,2.5131,0.107873,-0.353039,10.1989
2.23005, -0,0.00104887,1, 0.370235,0.0207204,1.31385,-0.151024,-0.068515,-0.629268, -0.037001,0.0101229,2.52375,0.451106,-0.245166,9.89491
2.24005, -0,0.00104887,1, 0.371547,0.0218005,1.31958,-0.1375,-0.0997906,-0.572915, -0.0364774,0.00959931,2.53457,0.1471,-0.313813,8.52198
2.25009, -0,0.00104887,1, 0.372661,0.0229596,1.32541,-0.139754,-0.0795507,-0.582307, -0.0357792,0.00994838,2.54504,-0.274586,-0.00980665,7.90416
2.26004, -0,0.00104887,1, 0.373829,0.0240872,1.33114,-0.1375,-0.086266,-0.572915, -0.0356047,0.0115192,2.56686,0.02942,-0.0882598,9.24767
2.27005, -0,0.00104887,1, 0.375068,0.0253421,1.33743,-0.151024,-0.0910559,-0.629268, -0.0356047,0.0115192,2.56686,0.02942,-0.0882598,9.24767
2.28009, -0,0.00104887,1, 0.375976,0.0267037,1.34382,-0.153278,-0.0572915,-0.63866, -0.0356047,0.0120428,2.5775,0.186326,-0.166713,9.74781
2.29006, -0,0.00104887,1, 0.377457,0.0277994,1.34964,-0.139754,-0.120124,-0.582307, -0.0352557,0.0120428,2.5885,-0.196133,-0.431493,9.77723
2.30006, -0,0.00104887,1, 0.379435,0.0285837,1.35462,-0.119467,-0.176054,-0.497779, -0.0349066,0.0122173,2.59949,0.225553,-0.313813,10.4049
2.31005, -0,0.00104887,1, 0.380918,0.0295538,1.35988,-0.126229,-0.124351,-0.525955, -0.0345575,0.0127409,2.61014,0.637432,-0.666852,11.0423
2.32005, -0,0.00104887,1, 0.38263,0.030644,1.36579,-0.142008,-0.144966,-0.591699, -0.034383,0.0136136,2.62079,0.254973,-0.0882598,11.1992
2.33005, -0,0.00104887,1, 0.383964,0.0318432,1.3718,-0.144262,-0.106694,-0.601091, -0.0345575,0.0143117,2.63161,0.254973,0.137293,11.0815
2.34004, -0,0.00104887,1, 0.385063,0.0331649,1.3781,-0.151024,-0.0820396,-0.629268, -0.034383,0.0143117,2.6426,-0.196133,-0.666852,8.28662
2.35004, -0,0.00104887,1, 0.386109,0.034502,1.38439,-0.151024,-0.0775314,-0.629268, -0.0342085,0.0141372,2.65325,-0.0490333,-0.666852,8.02184
2.36004, -0,0.00104887,1, 0.386995,0.0357819,1.39031,-0.142008,-0.063819,-0.591699, -0.0340339,0.0141372,2.66407,-0.00980665,-0.166713,9.35554
2.37005, -0,0.00104887,1, 0.38807,0.0370089,1.39613,-0.139754,-0.0840589,-0.582307, -0.0338594,0.0150098,2.68554,-0.313813,0.0686466,9.12999
2.38005, -0,0.00104887,1, 0.388932,0.0383694,1.40233,-0.14877,-0.0617058,-0.619876, -0.0338594,0.0150098,2.68554,-0.313813,0.0686466,9.12999
2.39004, -0,0.00104887,1, 0.389749,0.0397871,1.40871,-0.153278,-0.0572915,-0.63866, -0.0338594,0.0153589,2.69636,-0.00980665,-0.627626,9.81646
2.40008, -0,0.00104887,1, 0.390719,0.0410925,1.41473,-0.144262,-0.0751364,-0.601091, -0.0336849,0.0155334,2.70718,-0.156906,-0.353039,10.5421
2.41004, -0,0.00104887,1, 0.39249,0.0420502,1.4198,-0.121721,-0.160322,-0.507171, -0.0329867,0.0155334,2.71783,0.02942,-0.0882598,9.5909
2.42005, -0,0.00104887,1, 0.394248,0.0429722,1.42468,-0.117213,-0.164737,-0.488387, -0.0321141,0.0153589,2.72865,0.451106,0.17652,10.4735
2.43007, -0,0.00104887,1, 0.395834,0.0438585,1.42928,-0.110451,-0.144309,-0.460211, -0.0321141,0.0158825,2.73929,0.02942,-0.0490333,10.7873
2.44005, -0,0.00104887,1, 0.397283,0.0447708,1.43389,-0.110451,-0.130784,-0.460211, -0.0324631,0.0164061,2.74977,-0.0882598,-0.127486,9.81646
2.45005, -0,0.00104887,1, 0.398628,0.0459314,1.43943,-0.132991,-0.117729,-0.554131, -0.0328122,0.0167552,2.76059,0.333426,-0.392266,9.5909
2.46005, -0,0.00104887,1, 0.399876,0.0471109,1.44497,-0.132991,-0.108713,-0.554131, -0.0328122,0.0164061,2.77141,0.333426,-0.470719,9.60071
2.47005, -0,0.00104887,1, 0.401023,0.0482636,1.45032,-0.128483,-0.0996027,-0.535347, -0.0324631,0.0164061,2.78188,0.02942,-0.20594,9.63013
2.48005, -0,0.00104887,1, 0.401945,0.0494937,1.45586,-0.132991,-0.0771557,-0.554131, -0.0326377,0.0169297,2.8037,0.0686466,-0.127486,9.1398
2.49009, -0,0.00104887,1, 0.402736,0.0509928,1.46244,-0.157787,-0.0618936,-0.657444, -0.0326377,0.0169297,2.8037,0.0686466,-0.127486,9.1398
2.50005, -0,0.00104887,1, 0.403668,0.052254,1.46807,-0.135246,-0.0794568,-0.563523, -0.0326377,0.0172788,2.81417,0.186326,-0.431493,9.20844
2.51005, -0,0.00104887,1, 0.40519,0.0531881,1.47258,-0.108196,-0.142008,-0.450819, -0.0322886,0.0176278,2.82499,0.186326,-0.127486,10.5912
2.52005, -0,0.00104887,1, 0.407066,0.0540945,1.47709,-0.110451,-0.175866,-0.460211, -0.031765,0.0176278,2.83581,-0.470719,-0.127486,10.1989
2.53009, -0,0.00104887,1, 0.40825,0.0553447,1.48272,-0.135246,-0.106506,-0.563523, -0.0314159,0.0176278,2.84646,0.107873,-0.431493,11.209
2.54004, -0,0.00104887,1, 0.409054,0.0569505,1.48967,-0.166803,-0.0665897,-0.695012, -0.0312414,0.0185005,2.8571,-0.00980665,-0.00980665,10.0812
2.55005, -0,0.00104887,1, 0.4099,0.0583993,1.49597,-0.151024,-0.0730232,-0.629268, -0.0315905,0.0190241,2.86792,-0.00980665,-0.00980665,10.0812
2.56004, -0,0.00104887,1, 0.411264,0.0596795,1.5017,-0.1375,-0.12684,-0.572915, -0.0319395,0.0190241,2.87857,0.107873,-0.470719,8.66908
2.57006, -0,0.00104887,1, 0.412736,0.0607333,1.50649,-0.114959,-0.139895,-0.478995, -0.0315905,0.0190241,2.88957,-0.00980665,-0.0490333,9.40458
2.58004, -0,0.00104887,1, 0.41411,0.0617546,1.51109,-0.110451,-0.130784,-0.460211, -0.0310669,0.0193732,2.90039,-0.156906,0.0686466,10.4637
2.59007, -0,0.00104887,1, 0.415219,0.062933,1.51625,-0.123975,-0.104017,-0.516563, -0.0312414,0.0200713,2.92186,-0.00980665,-0.245166,10.1303
2.60009, -0,0.00104887,1, 0.416013,0.0642235,1.52179,-0.132991,-0.0726475,-0.554131, -0.0312414,0.0200713,2.92186,-0.00980665,-0.245166,10.1303
2.61007, -0,0.00104887,1, 0.416984,0.0655552,1.52752,-0.1375,-0.0907742,-0.572915, -0.0312414,0.0198968,2.93268,0.254973,-0.0490333,8.62985
2.62005, -0,0.00104887,1, 0.418635,0.0667061,1.5326,-0.121721,-0.160322,-0.507171, -0.0307178,0.0197222,2.94332,-0.470719,-0.392266,8.62985
2.63005, -0,0.00104887,1, 0.420504,0.0678121,1.53748,-0.117213,-0.182769,-0.488387, -0.0303687,0.0197222,2.95414,0.225553,-0.0882598,9.63994
2.64004, -0,0.00104887,1, 0.422008,0.0689836,1.54255,-0.121721,-0.146798,-0.507171, -0.0301942,0.0204204,2.96479,-0.00980665,-0.127486,11.5522
2.6501, -0,0.00104887,1, 0.422927,0.0703131,1.54819,-0.135246,-0.0884731,-0.563523, -0.0301942,0.0211185,2.97526,-0.156906,-0.166713,10.6991
2.66005, -0,0.00104887,1, 0.423798,0.0717841,1.55439,-0.14877,-0.0842467,-0.619876, -0.0301942,0.0214676,2.98591,0.294199,-0.245166,9.60071
2.67005, -0,0.00104887,1, 0.424588,0.0731033,1.55993,-0.135246,-0.0749486,-0.563523, -0.0301942,0.0214676,2.99673,0.0686466,-0.353039,8.24739
2.68005, -0,0.00104887,1, 0.425928,0.074219,1.56462,-0.112705,-0.133085,-0.469603, -0.0298451,0.021293,3.00755,-0.127486,-0.353039,9.1398
2.69004, -0,0.00104887,1, 0.427085,0.075432,1.56969,-0.121721,-0.11524,-0.507171, -0.0294961,0.0216421,3.0182,0.568786,-0.127486,10.2381
2.70005, -0,-0,1, 0.428054,0.0765603,1.57439,-0.112705,-0.0970199,-0.469603, -0.0293215,0.0223402,3.04001,-0.0882598,-0.313813,10.2087
2.71005, -0,0.00104887,1, 0.429242,0.0776492,1.5789,-0.108196,-0.119467,-0.450819, -0.0293215,0.0223402,3.04001,-0.0882598,-0.313813,10.2087
2.72009, -0,0.00104887,1, 0.430226,0.0792158,1.58538,-0.155532,-0.100166,-0.648052, -0.0287979,0.0221657,3.05066,0.490333,0.107873,8.48275
2.73006, -0,0.00104887,1, 0.431493,0.0806357,1.5912,-0.142008,-0.126934,-0.591699, -0.0282743,0.0219911,3.06148,-0.313813,-0.353039,9.35554
2.74005, -0,0.00104887,1, 0.433068,0.0819346,1.59646,-0.126229,-0.160416,-0.525955, -0.0284489,0.0219911,3.07213,-0.509946,-0.274586,10.5127
2.75005, -0,0.00104887,1, 0.434545,0.0832392,1.60172,-0.126229,-0.1514,-0.525955, -0.0284489,0.0221657,3.08243,0.608012,-0.431493,11.0031
2.76005, -0,0.00104887,1, 0.435542,0.0846035,1.60726,-0.132991,-0.104205,-0.554131, -0.0280998,0.0226893,3.0929,0.411879,0.0686466,10.8265
2.77008, -0,0.00104887,1, 0.43655,0.0861323,1.61346,-0.14877,-0.106788,-0.619876, -0.0277507,0.0232129,3.10354,-0.0490333,-0.392266,9.10057
2.78007, -0,0.00104887,1, 0.437689,0.0874927,1.61891,-0.130737,-0.119937,-0.544739, -0.0274017,0.0232129,3.11402,0.02942,-0.313813,8.4043
2.79005, -0,0.00104887,1, 0.438735,0.0887192,1.62379,-0.117213,-0.110638,-0.488387, -0.0274017,0.0232129,3.12466,0.1471,0.02942,8.20817
2.80004, -0,0.00104887,1, 0.439654,0.0901478,1.62952,-0.139754,-0.0975834,-0.582307, -0.0274017,0.0237365,3.13531,0.107873,0.254973,10.395
2.81006, -0,0.00104887,1, 0.44027,0.0916312,1.63553,-0.144262,-0.0706282,-0.601091, -0.0279253,0.0242601,-3.12641,-0.196133,-0.470719,10.4441
2.8201, -0,0.00104887,1, 0.44086,0.0930041,1.64107,-0.132991,-0.0681394,-0.554131, -0.0279253,0.0242601,-3.12641,-0.196133,-0.470719,10.4441
2.83005, -0,0.00104887,1, 0.441424,0.0943109,1.64633,-0.126229,-0.0657444,-0.525955, -0.0272271,0.0242601,-3.11559,0.107873,-0.549172,9.47322
2.8401, -0,0.00104887,1, 0.442391,0.0955622,1.65122,-0.117213,-0.10613,-0.488387, -0.0268781,0.023911,-3.10494,-1.0395,-0.431493,10.2872
2.85004, -0,0.00104887,1, 0.443807,0.0967652,1.65573,-0.108196,-0.151024,-0.450819, -0.0268781,0.0235619,-3.09464,0.1471,-0.431493,9.4438
2.86021, -0,0.00104887,1, 0.445325,0.098052,1.66052,-0.114959,-0.162436,-0.478995, -0.026529,0.0235619,-3.08435,0.411879,-0.313813,10.9638
2.87006, -0,0.00104887,1, 0.446706,0.0995839,1.66634,-0.139754,-0.151682,-0.582307, -0.0263545,0.0237365,-3.0744,0.333426,-0.20594,10.4735
2.88005, -0,0.00104887,1, 0.447564,0.10105,1.67207,-0.1375,-0.0997906,-0.572915, -0.0260054,0.0242601,-3.0641,-0.156906,-0.274586,9.63013
2.89008, -0,0.00104887,1, 0.448482,0.102506,1.6777,-0.135246,-0.106506,-0.563523, -0.0254818,0.0242601,-3.05363,0.186326,-0.353039,9.93414
2.90005, -0,0.00104887,1, 0.449303,0.103957,1.68334,-0.135246,-0.0974895,-0.563523, -0.0246091,0.0240855,-3.04316,-0.23536,-0.313813,8.36507
2.91007, -0,0.00104887,1, 0.450136,0.105438,1.68907,-0.1375,-0.0997906,-0.572915, -0.0242601,0.023911,-3.03251,0.490333,-0.00980665,10.0812
2.92005, -0,0.00104887,1, 0.451055,0.106889,1.69461,-0.132991,-0.108713,-0.554131, -0.0244346,0.0240855,-3.02169,-0.392266,0.107873,9.2869
2.93005, -0,0.00104887,1, 0.451975,0.108256,1.69977,-0.123975,-0.108525,-0.516563, -0.0244346,0.0240855,-3.02169,-0.392266,0.107873,9.2869
2.94013, -0,0.00104887,1, 0.453058,0.109536,1.70447,-0.112705,-0.124069,-0.469603, -0.0249582,0.0247837,-3.00057,-0.0882598,-0.549172,9.93414
2.95005, -0,0.00104887,1, 0.454129,0.110866,1.70935,-0.117213,-0.124163,-0.488387, -0.0244346,0.0242601,-2.9901,-0.0490333,-0.245166,11.5424
2.96008, -0,0.00104887,1, 0.455099,0.112233,1.71443,-0.121721,-0.11524,-0.507171, -0.0233874,0.0233874,-2.98015,0.1471,-0.735499,10.1989
2.97005, -0,0.00104887,1, 0.456075,0.113675,1.71978,-0.128483,-0.117635,-0.535347, -0.0228638,0.0228638,-2.96985,0.186326,-0.0490333,8.47295
2.98006, -0,0.00104887,1, 0.457012,0.115187,1.72541,-0.135246,-0.115522,-0.563523, -0.0228638,0.0230383,-2.95938,0.294199,0.137293,9.16922
2.99005, -0,0.00104887,1, 0.457712,0.116713,1.73124,-0.139754,-0.0930753,-0.582307, -0.0226893,0.0237365,-2.94908,0.254973,-0.20594,8.82598
3.00005, -0,0.00104887,1, 0.458499,0.118213,1.73687,-0.1375,-0.0997906,-0.572915, -0.0225147,0.0240855,-2.93861,0.294199,0.17652,9.69878
3.01009, -0,0.00104887,1, 0.45953,0.119853,1.74288,-0.144262,-0.129235,-0.601091, -0.0223402,0.0242601,-2.92779,0.225553,-0.470719,9.97336
3.02004, -0,0.00104887,1, 0.460659,0.121541,1.74899,-0.14877,-0.138345,-0.619876, -0.0219911,0.0240855,-2.91732,0.225553,0.17652,11.0129
3.03005, -0,0.00104887,1, 0.461423,0.12317,1.75509,-0.146516,-0.104487,-0.610483, -0.0216421,0.0240855,-2.9065,0.0686466,0.02942,8.98289
3.04009, -0,0.00104887,1, 0.461929,0.12478,1.76129,-0.14877,-0.0797385,-0.619876, -0.0216421,0.0240855,-2.9065,0.0686466,0.02942,8.98289
3.05005, -0,0.00104887,1, 0.462618,0.126339,1.76712,-0.139754,-0.0975834,-0.582307, -0.0216421,0.0244346,-2.88468,-0.0882598,-0.431493,8.97309
3.06014, -0,0.00104887,1, 0.463692,0.127751,1.772,-0.119467,-0.130972,-0.497779, -0.021293,0.0244346,-2.87421,-0.196133,-0.20594,8.98289
3.07005, -0,0.00104887,1, 0.465095,0.129215,1.77679,-0.114959,-0.166944,-0.478995, -0.0211185,0.0242601,-2.86356,-0.0882598,-0.392266,11.1698
3.08006, -0,0.00104887,1, 0.466676,0.130794,1.78186,-0.123975,-0.185164,-0.516563, -0.0209439,0.023911,-2.85309,0.372653,-0.0490333,10.8167
3.09006, -0,0.00104887,1, 0.4675,0.132333,1.7874,-0.132991,-0.113221,-0.554131, -0.0205949,0.023911,-2.84279,0.568786,0.137293,11.1698
3.10005, -0,0.00104887,1, 0.468024,0.133952,1.79351,-0.146516,-0.0864539,-0.610483, -0.0202458,0.0240855,-2.83197,-0.0490333,-0.127486,8.89463
3.11018, -0,0.00104887,1, 0.468468,0.13558,1.79971,-0.14877,-0.0797385,-0.619876, -0.0198968,0.0240855,-2.82098,-0.353039,0.17652,8.36507
3.12005, -0,0.00104887,1, 0.469168,0.137158,1.80543,-0.1375,-0.104299,-0.572915, -0.0193732,0.0240855,-2.81033,0.02942,0.02942,8.94367
3.13005, -0,0.00104887,1, 0.469955,0.138717,1.81098,-0.132991,-0.113221,-0.554131, -0.0190241,0.0240855,-2.79933,0.02942,0.02942,9.85568
3.14008, -0,0.00104887,1, 0.470263,0.140419,1.81755,-0.157787,-0.07091,-0.657444, -0.0191986,0.0242601,-2.78834,0.372653,0.02942,10.1989
3.15006, -0,0.00104887,1, 0.470572,0.142266,1.82469,-0.171311,-0.0757,-0.713796, -0.0191986,0.0242601,-2.78834,0.372653,0.02942,10.1989
3.16007, -0,0.00104887,1, 0.47138,0.14411,1.83126,-0.157787,-0.125008,-0.657444, -0.0188496,0.0249582,-2.76652,0.225553,0.137293,9.66936
3.17005, -0,0.00104887,1, 0.472372,0.145732,1.83671,-0.130737,-0.137969,-0.544739, -0.0181514,0.0251327,-2.75535,0.107873,-0.00980665,9.31632
3.18006, -0,0.00104887,1, 0.473546,0.147247,1.8415,-0.114959,-0.153419,-0.478995, -0.0176278,0.0254818,-2.74453,-0.127486,0.107873,11.0815
3.19005, -0,0.00104887,1, 0.474414,0.148754,1.84657,-0.121721,-0.124257,-0.507171, -0.0174533,0.0256563,-2.73353,0.0686466,-0.274586,11.209
3.20004, -0,0.00104887,1, 0.474925,0.150354,1.8524,-0.139754,-0.0930753,-0.582307, -0.0176278,0.0258309,-2.72254,0.411879,0.17652,11.2776
3.21007, -0,0.00104887,1, 0.47526,0.152049,1.85878,-0.153278,-0.0798325,-0.63866, -0.0174533,0.0256563,-2.71172,-0.127486,0.0686466,9.48303
3.22008, -0,0.00104887,1, 0.475715,0.153785,1.86517,-0.153278,-0.093357,-0.63866, -0.0169297,0.0253073,-2.70072,0.02942,-0.20594,8.8554
3.23005, -0,0.00104887,1, 0.476256,0.155508,1.87137,-0.14877,-0.102279,-0.619876, -0.0164061,0.0251327,-2.68973,0.333426,0.215746,9.12999
3.24008, -0,0.00104887,1, 0.476555,0.157066,1.87719,-0.142008,-0.0728354,-0.591699, -0.0162316,0.0254818,-2.67908,-0.0490333,0.0686466,9.56148
3.25004, -0,0.00104887,1, 0.47669,0.15867,1.88339,-0.14877,-0.0617058,-0.619876, -0.0162316,0.0261799,-2.66808,-0.431493,-0.0490333,10.7383
3.26008, -0,0.00104887,1, 0.4766,0.160206,1.88959,-0.14877,-0.0391648,-0.619876, -0.0162316,0.0261799,-2.66808,-0.431493,-0.0490333,10.7383
3.27005, -0,0.00104887,1, 0.476771,0.161784,1.8956,-0.144262,-0.06612,-0.601091, -0.0158825,0.0261799,-2.64609,0.186326,-0.509946,9.16922
3.28006, -0,0.00104887,1, 0.47716,0.163392,1.90142,-0.139754,-0.0885671,-0.582307, -0.0151844,0.0260054,-2.6351,-0.696272,-0.0882598,9.82626
3.29005, -0,0.00104887,1, 0.478205,0.164994,1.90631,-0.117213,-0.151212,-0.488387, -0.0148353,0.0256563,-2.62428,0.637432,0.02942,9.55168
3.30009, -0,0.00104887,1, 0.47869,0.166623,1.91203,-0.1375,-0.0997906,-0.572915, -0.0144862,0.0254818,-2.61363,0.451106,-0.313813,11.0521
3.31005, -0,0.00104887,1, 0.478768,0.168303,1.91852,-0.155532,-0.0641008,-0.648052, -0.0141372,0.0256563,-2.60281,-0.156906,0.254973,10.8952
3.32004, -0,0.00104887,1, 0.478963,0.17003,1.925,-0.155532,-0.0776253,-0.648052, -0.0139626,0.0258309,-2.59199,-0.23536,0.0686466,8.78676
3.33004, -0,0.00104887,1, 0.479358,0.171766,1.93119,-0.14877,-0.0977713,-0.619876, -0.0137881,0.0258309,-2.58117,-0.0490333,-0.245166,7.90416
3.34007, -0,0.00104887,1, 0.479889,0.173366,1.93664,-0.130737,-0.106412,-0.544739, -0.013439,0.0258309,-2.57035,0.372653,-0.274586,9.47322
3.35005, -0,0.00104887,1, 0.480525,0.174917,1.94171,-0.121721,-0.11524,-0.507171, -0.0132645,0.0263545,-2.55935,-0.392266,-0.0882598,9.60071
3.36005, -0,0.00104887,1, 0.48064,0.17656,1.94791,-0.14877,-0.0707221,-0.619876, -0.013439,0.0268781,-2.5487,-0.156906,0.254973,10.6696
3.37005, -0,0.00104887,1, 0.480571,0.17828,1.95467,-0.162295,-0.0574794,-0.676228, -0.013439,0.0268781,-2.5487,-0.156906,0.254973,10.6696
3.38005, -0,0.00104887,1, 0.480973,0.180002,1.96069,-0.144262,-0.102186,-0.601091, -0.0125664,0.0270526,-2.52706,-0.509946,0.451106,8.66908
3.39005, -0,0.00104887,1, 0.481465,0.181718,1.96651,-0.139754,-0.111108,-0.582307, -0.0120428,0.0268781,-2.51624,-0.0490333,-0.0490333,7.94339
3.40006, -0,0.00104887,1, 0.482058,0.18346,1.97224,-0.1375,-0.122331,-0.572915, -0.0122173,0.0272271,-2.50525,0.0686466,-0.470719,9.78704
3.41005, -0,0.00104887,1, 0.48253,0.185182,1.97806,-0.139754,-0.111108,-0.582307, -0.0132645,0.0279253,-2.49442,0.411879,-0.20594,11.9347
3.42008, -0,0.00104887,1, 0.48268,0.186894,1.98435,-0.151024,-0.0820396,-0.629268, -0.013439,0.0284489,-2.4836,-0.696272,-0.696272,10.4735
3.43009, -0,0.00104887,1, 0.483207,0.188557,1.9898,-0.130737,-0.115428,-0.544739, -0.0122173,0.0284489,-2.47313,0.715885,0.107873,9.86549
3.44005, -0,0.00104887,1, 0.483608,0.190095,1.99497,-0.123975,-0.0995088,-0.516563, -0.010821,0.0280998,-2.46214,0.186326,0.02942,8.51217
3.45005, -0,0.00104887,1, 0.483953,0.191689,2.00041,-0.130737,-0.0973956,-0.544739, -0.010472,0.0279253,-2.45131,-0.431493,0.0686466,9.01231
3.46005, -0,0.00104887,1, 0.484076,0.193434,2.0068,-0.153278,-0.0843406,-0.63866, -0.0106465,0.0279253,-2.44049,0.02942,-0.20594,9.81646
3.47005, -0,0.00104887,1, 0.484306,0.19541,2.01384,-0.169057,-0.104956,-0.704404, -0.0111701,0.0284489,-2.42967,0.0686466,-0.166713,9.27709
3.48005, -0,0.00104887,1, 0.484413,0.197086,2.01995,-0.14877,-0.0797385,-0.619876, -0.0111701,0.0284489,-2.42967,0.0686466,-0.166713,9.27709
3.49007, -0,0.00104887,1, 0.484618,0.198689,2.02558,-0.135246,-0.0884731,-0.563523, -0.0111701,0.0289725,-2.40821,-0.23536,-0.735499,11.2776
3.50005, -0,0.00104887,1, 0.484995,0.200332,2.03103,-0.130737,-0.106412,-0.544739, -0.00994838,0.0282743,-2.39738,0.608012,0.02942,10.7383
3.51014, -0,0.00104887,1, 0.485776,0.202107,2.0362,-0.123975,-0.149099,-0.516563, -0.00907571,0.0275762,-2.38656,0.02942,-0.0882598,9.31632
3.52005, -0,0.00104887,1, 0.485966,0.203845,2.0423,-0.146516,-0.0954702,-0.610483, -0.00872665,0.0270526,-2.37609,-0.0882598,-0.509946,9.40458
3.53011, -0,0.00104887,1, 0.485756,0.205612,2.04925,-0.166803,-0.0620815,-0.695012, -0.00872665,0.0272271,-2.36527,-0.196133,-0.20594,10.5029
3.54006, -0,0.00104887,1, 0.486184,0.207336,2.05479,-0.132991,-0.117729,-0.554131, -0.00837758,0.0274017,-2.35462,-0.0490333,0.02942,9.05154
3.55006, -0,0.00104887,1, 0.487063,0.20905,2.0594,-0.110451,-0.157833,-0.460211, -0.00750492,0.0272271,-2.34398,-0.127486,-0.274586,9.69878
3.56009, -0,0.00104887,1, 0.487791,0.210948,2.06494,-0.132991,-0.153795,-0.554131, -0.00715585,0.0272271,-2.33316,-0.156906,0.137293,11.6601
3.57008, -0,0.00104887,1, 0.487992,0.212673,2.07085,-0.142008,-0.0998845,-0.591699, -0.00750492,0.0275762,-2.32234,-0.509946,-0.245166,8.74753
3.58004, -0,0.00104887,1, 0.488097,0.214223,2.0763,-0.130737,-0.083871,-0.544739, -0.00750492,0.0280998,-2.31186,-0.196133,0.107873,8.62985
3.59005, -0,0.00104887,1, 0.488336,0.215697,2.08119,-0.117213,-0.0926056,-0.488387, -0.00750492,0.0280998,-2.31186,-0.196133,0.107873,8.62985
3.60005, -0,0.00104887,1, 0.488589,0.217133,2.08588,-0.112705,-0.0925117,-0.469603, -0.00698132,0.0286234,-2.2904,-0.00980665,-0.813952,10.3264
3.61011, -0,0.00104887,1, 0.489572,0.218963,2.09048,-0.110451,-0.175866,-0.460211, -0.00663225,0.0279253,-2.27992,-0.00980665,0.02942,10.0518
3.62009, -0,0.00104887,1, 0.490345,0.221021,2.09631,-0.139754,-0.169714,-0.582307, -0.00663225,0.0272271,-2.26928,0.186326,0.558979,9.63013
3.63005, -0,0.00104887,1, 0.491258,0.223042,2.10166,-0.128483,-0.18075,-0.535347, -0.00715585,0.0272271,-2.25863,0.372653,-0.274586,10.5912
3.64004, -0,0.00104887,1, 0.492148,0.22477,2.10598,-0.103688,-0.164455,-0.432034, -0.00698132,0.0277507,-2.24816,0.833565,0.17652,10.3656
3.65005, -0,0.00104887,1, 0.492722,0.226451,2.11077,-0.114959,-0.135386,-0.478995, -0.00575959,0.0284489,-2.23751,-0.617819,0.490333,10.1695
3.66009, -0,0.00104887,1, 0.492637,0.228269,2.11744,-0.160041,-0.0867356,-0.666836, -0.00506145,0.0286234,-2.22669,-0.578592,0.107873,8.32585
3.67006, -0,0.00104887,1, 0.492233,0.230031,2.12458,-0.171311,-0.0576672,-0.713796, -0.00541052,0.0284489,-2.21622,-0.156906,-0.431493,9.06135
3.68009, -0,0.00104887,1, 0.492108,0.231786,2.13106,-0.155532,-0.0821335,-0.648052, -0.00523599,0.0286234,-2.2054,0.372653,0.294199,9.17902
3.69004, -0,0.00104887,1, 0.491735,0.233363,2.13744,-0.153278,-0.0527833,-0.63866, -0.00488692,0.0286234,-2.19475,-0.470719,-0.0490333,9.20844
3.70005, -0,0.00104887,1, 0.491192,0.234943,2.14421,-0.162295,-0.0394467,-0.676228, -0.00488692,0.0286234,-2.19475,-0.470719,-0.0490333,9.20844
3.71005, -0,0.00104887,1, 0.490678,0.23641,2.1505,-0.151024,-0.0369577,-0.629268, -0.00436332,0.0282743,-2.18393,-0.196133,-0.274586,9.82626
3.72005, -0,0.00104887,1, 0.491139,0.23809,2.15529,-0.114959,-0.130878,-0.478995, -0.00279253,0.0274017,-2.16211,0.186326,-0.274586,8.66908
3.73005, -0,0.00104887,1, 0.491694,0.239948,2.16045,-0.123975,-0.149099,-0.516563, -0.0020944,0.0267035,-2.15129,0.411879,0.755112,10.7873
3.74005, -0,0.00104887,1, 0.492165,0.241923,2.16618,-0.1375,-0.149381,-0.572915, -0.00191986,0.026529,-2.1403,0.02942,-0.245166,12.0818
3.75005, -0,0.00104887,1, 0.492619,0.243869,2.17182,-0.135246,-0.14708,-0.563523, -0.00226893,0.0268781,-2.12948,0.490333,0.02942,12.1602
3.76008, -0,0.00104887,1, 0.493106,0.24571,2.17698,-0.123975,-0.144591,-0.516563, -0.0015708,0.0272271,-2.11883,-0.0490333,0.0686466,8.32585
3.7701, -0,0.00104887,1, 0.493305,0.247443,2.18243,-0.132991,-0.113221,-0.554131, -0.000523599,0.0270526,-2.10783,0.107873,0.333426,8.89463
3.78009, -0,0.00104887,1, 0.49352,0.249139,2.18769,-0.126229,-0.115334,-0.525955, -0.000349066,0.0267035,-2.09684,-0.509946,0.215746,8.74753
3.79005, -0,0.00104887,1, 0.493649,0.250948,2.19351,-0.139754,-0.115616,-0.582307, -0.000523599,0.0267035,-2.08619,-0.127486,0.107873,8.93386
3.80004, -0,0.00104887,1, 0.493367,0.252663,2.2,-0.155532,-0.0776253,-0.648052, -0.000698132,0.0267035,-2.0752,0.0686466,0.333426,9.82626
3.81004, -0,0.00104887,1, 0.493323,0.254336,2.20572,-0.1375,-0.0952824,-0.572915, -0.000698132,0.0267035,-2.0752,0.0686466,0.333426,9.82626
3.82004, -0,0.00104887,1, 0.493691,0.256038,2.21051,-0.114959,-0.130878,-0.478995, -0.000872665,0.0268781,-2.06438,-0.156906,0.372653,9.63013
3.83005, -0,0.00104887,1, 0.494573,0.25802,2.21493,-0.105942,-0.189297,-0.441427, -0.000349066,0.0268781,-2.04273,0.1471,-0.245166,10.8952
3.84008, -0,0.00104887,1, 0.495038,0.25984,2.21981,-0.117213,-0.151212,-0.488387, -0.000872665,0.026529,-2.03191,0.755112,-0.274586,10.9246
3.85005, -0,0.00104887,1, 0.495176,0.261675,2.22554,-0.1375,-0.122331,-0.572915, -0.0015708,0.0261799,-2.02109,0.02942,0.215746,11.0913
3.8601, -0,0.00104887,1, 0.495103,0.263441,2.23155,-0.144262,-0.102186,-0.601091, -0.0015708,0.0261799,-2.01062,-0.23536,-0.0882598,9.78704
3.87005, -0,0.00104887,1, 0.495069,0.265103,2.23709,-0.132991,-0.0996967,-0.554131, -0.000872665,0.0263545,-1.9998,0.0686466,0.137293,9.12999
3.88004, -0,0.00104887,1, 0.49505,0.266697,2.24235,-0.126229,-0.0973017,-0.525955, 0.000349066,0.026529,-1.98898,0.529559,0.254973,8.16894
3.89005, -0,0.00104887,1, 0.494987,0.268262,2.24761,-0.126229,-0.0927935,-0.525955, 0.000698132,0.0263545,-1.97833,-0.509946,0.0686466,9.86549
3.90009, -0,0.00104887,1, 0.494878,0.270058,2.25372,-0.146516,-0.104487,-0.610483, 0,0.0263545,-1.96751,-0.0490333,0.254973,9.65955
3.91004, -0,0.00104887,1, 0.494961,0.271961,2.25963,-0.142008,-0.126934,-0.591699, -0.000523599,0.026529,-1.95669,0.608012,0.215746,9.17902
3.92005, -0,0.00104887,1, 0.495243,0.273745,2.26461,-0.121721,-0.133273,-0.507171, -0.000523599,0.026529,-1.95669,0.608012,0.215746,9.17902
3.93006, -0,0.00104887,1, 0.495828,0.275467,2.26856,-0.0946719,-0.155251,-0.394466, -0.000698132,0.0267035,-1.94604,-0.696272,0.17652,9.51245
3.94005, -0,0.00104887,1, 0.496346,0.27723,2.27278,-0.101434,-0.153137,-0.422642, 0.000174533,0.0267035,-1.9244,-0.353039,-0.127486,11.7778
3.95005, -0,0.00104887,1, 0.496378,0.278973,2.27823,-0.130737,-0.115428,-0.544739, 0.000174533,0.026529,-1.91393,0.333426,0.0686466,9.77723
3.96005, -0,0.00104887,1, 0.496262,0.280955,2.28481,-0.157787,-0.1205,-0.657444, -0.000174533,0.0261799,-1.90346,0.254973,-0.127486,9.85568
3.97005, -0,0.00104887,1, 0.49597,0.282884,2.29166,-0.164549,-0.104862,-0.68562, -0.000349066,0.0261799,-1.89281,0.254973,-0.20594,8.82598
3.9801, -0,0.00104887,1, 0.496037,0.284688,2.29711,-0.130737,-0.124445,-0.544739, 0.000349066,0.026529,-1.88216,0.333426,0.0686466,9.02212
3.99005, -0,0.00104887,1, 0.496309,0.286381,2.30162,-0.108196,-0.132991,-0.450819, 0.00122173,0.0267035,-1.87134,-0.313813,0.519752,9.51245
4.00005, -0,0.00104887,1, 0.496378,0.28799,2.30641,-0.114959,-0.112846,-0.478995, 0.00122173,0.0268781,-1.86035,0.02942,0.137293,10.9344
4.01005, -0,0.00104887,1, 0.496054,0.289493,2.31195,-0.132991,-0.0771557,-0.554131, 0.000698132,0.0267035,-1.8497,-0.156906,-0.20594,11.3169
4.02004, -0,0.00104887,1, 0.495784,0.290991,2.3173,-0.128483,-0.08157,-0.535347, 0.000698132,0.0261799,-1.83888,0.0686466,0.294199,8.74753
4.03005, -0,0.00104887,1, 0.49538,0.292493,2.32303,-0.1375,-0.0727414,-0.572915, 0.000698132,0.0261799,-1.83888,0.0686466,0.294199,8.74753
4.04005, -0,0.00104887,1, 0.495356,0.294235,2.32838,-0.128483,-0.117635,-0.535347, 0.00122173,0.0258309,-1.82806,0.1471,0.372653,8.47295
4.05004, -0,0.00104887,1, 0.495962,0.296147,2.33242,-0.096926,-0.175584,-0.403858, 0.00191986,0.0260054,-1.80659,-0.392266,-0.274586,10.5421
4.06005, -0,0.00104887,1, 0.496501,0.298192,2.33703,-0.110451,-0.180374,-0.460211, 0.00174533,0.0260054,-1.79594,-0.392266,-0.166713,11.2384
4.07005, -0,0.00104887,1, 0.496581,0.300027,2.34228,-0.126229,-0.133367,-0.525955, 0.00139626,0.0258309,-1.78565,0.372653,-0.0490333,11.7778
4.08005, -0,0.00104887,1, 0.496336,0.301836,2.34839,-0.146516,-0.108995,-0.610483, 0.00122173,0.0254818,-1.775,-0.127486,-0.313813,9.93414
4.09006, -0,0.00104887,1, 0.495919,0.303518,2.35459,-0.14877,-0.0887549,-0.619876, 0.00191986,0.0253073,-1.76418,0.411879,0.372653,8.44353
4.10005, -0,0.00104887,1, 0.495715,0.305356,2.3606,-0.144262,-0.11571,-0.601091, 0.00244346,0.0253073,-1.75371,0.294199,0.215746,8.48275
4.11005, -0,0.00104887,1, 0.495341,0.307,2.36652,-0.142008,-0.0908681,-0.591699, 0.00226893,0.0253073,-1.74306,-0.00980665,0.02942,9.69878
4.12005, -0,0.00104887,1, 0.495084,0.308674,2.37215,-0.135246,-0.101998,-0.563523, 0.00191986,0.0258309,-1.73241,-0.0490333,-0.0490333,10.7089
4.13004, -0,0.00104887,1, 0.494788,0.310186,2.37741,-0.126229,-0.0882853,-0.525955, 0.00174533,0.0258309,-1.72177,-0.23536,0.254973,10.552
4.14004, -0,0.00104887,1, 0.494577,0.311762,2.38258,-0.123975,-0.0995088,-0.516563, 0.00174533,0.0258309,-1.72177,-0.23536,0.254973,10.552
4.15009, -0,0.00104887,1, 0.494482,0.313467,2.38774,-0.123975,-0.117542,-0.516563, 0.00191986,0.0249582,-1.71077,0.372653,0.333426,9.90472
4.16009, -0,0.00104887,1, 0.494538,0.315112,2.39225,-0.108196,-0.123975,-0.450819, 0.00279253,0.0242601,-1.68965,-0.00980665,0.17652,9.17902
4.17005, -0,0.00104887,1, 0.494646,0.316887,2.39695,-0.112705,-0.137594,-0.469603, 0.00244346,0.0244346,-1.67918,-0.470719,-0.0882598,9.56148
4.18005, -0,0.00104887,1, 0.494305,0.318584,2.40277,-0.139754,-0.102092,-0.582307, 0.00174533,0.0244346,-1.66853,0.107873,-0.127486,9.82626
4.19007, -0,0.00104887,1, 0.494293,0.320518,2.40822,-0.130737,-0.142477,-0.544739, 0.00174533,0.0242601,-1.65806,-0.127486,-0.00980665,10.1205
4.20008, -0,0.00104887,1, 0.494457,0.322524,2.41329,-0.121721,-0.160322,-0.507171, 0.00261799,0.0242601,-1.64759,0.608012,0.294199,9.35554
