time_sec, time_nanosec, twistx, twisty, twistz, odomx, odomy, odom_theta, odom_vx, odom_vy, odom_w, roll, pitch, yaw, accl_x, accl_y, accl_z
1.73487e+09,1734874276113598298, 0,0,0, 0,0,0,0,0,0, 0,0,0,0,0,0
1.73487e+09,1734874276123637138, 0,0,0, 0,0,0,0,0,0, 0,0,0,0,0,0
1.73487e+09,1734874276133661670, 0,0,0, 0,0,0,0,0,0, 0,0,0,0,0,0
1.73487e+09,1734874276143582459, 0,0,0, 0,0,0,0,0,0, 0,0,0,0,0,0
1.73487e+09,1734874276153614338, 0,0,0, 0,0,0,0,0,0, 0,0,0,0,0,0
1.73487e+09,1734874276163635967, 0,0,0, 0,0,0,0,0,0, 0,0,0,0,0,0
1.73487e+09,1734874276173620350, 0,0,0, 0,0,0,0,0,0, -2.96159,-1.19159,-2.93159,0.353039,0.00980665,9.81646
1.73487e+09,1734874276183695042, 0,0,0, 0,0,0,0,0,0, -2.96159,-1.19159,-2.93159,0.353039,0.00980665,9.81646
1.73487e+09,1734874276193608185, 0,0,0, 0,0,0,0,0,0, -2.96159,-1.19159,-2.93159,0.313813,0.00980665,9.81646
1.73487e+09,1734874276203518689, 0,0,0, 0,0,0,0,0,0, -2.96159,-1.19159,-2.93159,0.353039,0.0490333,9.85568
1.73487e+09,1734874276213607587, 0,0,0, -0.645583,-0.319147,0.00854137,0,0,-0, -2.96159,-1.19159,-2.93159,0.353039,0.0490333,9.85568
1.73487e+09,1734874276223571279, 0,0,0, -0.645583,-0.319147,0.00854137,0,0,-0, -2.96159,-1.19159,-2.93159,0.353039,0.0490333,9.85568
1.73487e+09,1734874276233584136, 0,0,0, -0.645583,-0.319147,0.00854137,0,0,-0, -2.96159,-1.19159,-2.93159,0.353039,0.00980665,9.81646
1.73487e+09,1734874276243613196, 0,0,0, -0.645583,-0.319147,0.00854137,0,0,-0, -2.96159,-1.20159,-2.93159,0.313813,0.0490333,9.78704
1.73487e+09,1734874276253515523, 0,0,0, -0.645583,-0.319147,0.00854137,0,0,-0, -2.96159,-1.20159,-2.93159,0.353039,0.00980665,9.81646
1.73487e+09,1734874276263682708, 0,0,0, -0.645583,-0.319147,0.00854137,0,0,-0, -2.96159,-1.20159,-2.93159,0.313813,0.0490333,9.80665
1.73487e+09,1734874276273598364, 0,0,0, -0.645583,-0.319147,0.00854137,0,0,-0, -2.96159,-1.20159,-2.93159,0.353039,0.0490333,9.78704
1.73487e+09,1734874276283609379, 0,0,0, -0.645583,-0.319147,0.00854137,0,0,-0, -2.96159,-1.20159,-2.93159,0.313813,0.0490333,9.80665
1.73487e+09,1734874276293710690, 0,0,0, -0.645583,-0.319147,0.00854137,0,0,-0, -2.96159,-1.20159,-2.93159,0.313813,0.0490333,9.80665
1.73487e+09,1734874276303720419, 0,0,0, -0.645583,-0.319147,0.00854137,0,0,-0, -2.96159,-1.20159,-2.93159,0.313813,0.0490333,9.80665
1.73487e+09,1734874276313714977, 0,0,0, -0.645583,-0.319147,0.00854137,0,0,-0, -2.96159,-1.20159,-2.93159,0.313813,0.0490333,9.80665
1.73487e+09,1734874276323709174, 0,0,0, -0.645583,-0.319147,0.00854137,0,0,-0, -2.96159,-1.20159,-2.93159,0.313813,0.0490333,9.80665
1.73487e+09,1734874276333614243, 0,0,0, -0.645583,-0.319192,0.00854137,0,0,-0, -2.96159,-1.20159,-2.93159,0.353039,0.00980665,9.84588
1.73487e+09,1734874276343576242, 0,0,0, -0.645583,-0.319192,0.00854137,0,0,-0, -2.96159,-1.20159,-2.93159,0.353039,0.00980665,9.81646
1.73487e+09,1734874276353617148, 0,0,0, -0.645583,-0.319192,0.00854137,0,0,-0, -2.96159,-1.20159,-2.93159,0.353039,0.00980665,9.81646
1.73487e+09,1734874276363575888, 0,0,0, -0.645583,-0.319192,0.00854137,0,0,-0, -2.96159,-1.20159,-2.93159,0.353039,0.00980665,9.84588
1.73487e+09,1734874276373572320, 0,0,0, -0.645583,-0.319192,0.00854137,0,0,-0, -2.96159,-1.20159,-2.93159,0.353039,0.00980665,9.84588
1.73487e+09,1734874276383664546, 0,0,0, -0.645583,-0.319192,0.00854137,0,0,-0, -2.96159,-1.20159,-2.93159,0.353039,0.0490333,9.78704
1.73487e+09,1734874276393614019, 0,0,0, -0.645583,-0.319192,0.00854137,0,0,-0, -2.96159,-1.20159,-2.93159,0.353039,0.00980665,9.81646
1.73487e+09,1734874276403570649, 0,0,0, -0.645583,-0.319192,0.00854137,0,0,-0, -2.96159,-1.20159,-2.93159,0.353039,0.00980665,9.77723
1.73487e+09,1734874276413688503, 0,0,0, -0.645583,-0.319192,0.00854137,0,0,-0, -2.96159,-1.20159,-2.93159,0.313813,0.00980665,9.81646
1.73487e+09,1734874276423626453, 0,0,0, -0.645583,-0.319192,0.00854137,0,0,-0, -2.96159,-1.20159,-2.93159,0.353039,0.00980665,9.81646
1.73487e+09,1734874276433617549, 0,0,0, -0.645583,-0.319192,0.00854137,0,0,-0, -2.96159,-1.20159,-2.93159,0.353039,0.0490333,9.80665
1.73487e+09,1734874276443610397, 0,0,0, -0.645605,-0.319214,0.00844745,0.00450819,-0.00441427,0.0187841, -2.96159,-1.20159,-2.93159,0.353039,0.0490333,9.80665
1.73487e+09,1734874276453668492, 0,0,0, -0.645605,-0.319214,0.00844745,0,0,-0, -2.96159,-1.20159,-2.93159,0.313813,0.00980665,9.81646
1.73487e+09,1734874276463682884, 0,0,0, -0.645605,-0.319214,0.00844745,0,0,-0, -2.96159,-1.20159,-2.93159,0.313813,0.00980665,9.81646
1.73487e+09,1734874276473621517, 0,0,0, -0.645605,-0.319214,0.00844745,0,0,-0, -2.96159,-1.20159,-2.93159,0.353039,0.00980665,9.81646
1.73487e+09,1734874276483614127, 0,0,0, -0.645582,-0.319236,0.00835353,0.00450819,0.00441427,-0.0187841, -2.96159,-1.20159,-2.93159,0.313813,-0.02942,9.80665
1.73487e+09,1734874276493574010, 0,0,0, -0.645582,-0.319236,0.00835353,0,0,-0, -2.96159,-1.20159,-2.93159,0.313813,0.0490333,9.80665
1.73487e+09,1734874276503613148, 0,0,0, -0.645582,-0.319236,0.00835353,0,0,-0, -2.96159,-1.19159,-2.93159,0.353039,0.0490333,9.78704
1.73487e+09,1734874276513539346, 0,0,0, -0.645582,-0.319281,0.00835353,0,0,-0, -2.96159,-1.19159,-2.93159,0.392266,0.0882598,9.80665
1.73487e+09,1734874276523611600, 0,0,0, -0.645582,-0.319281,0.00835353,0,0,-0, -2.96159,-1.19159,-2.93159,0.353039,0.0490333,9.80665
1.73487e+09,1734874276533676111, 0,0,0, -0.645582,-0.319281,0.00835353,0,0,-0, -2.96159,-1.19159,-2.93159,0.353039,0.0490333,9.85568
1.73487e+09,1734874276543616138, 0,0,0, -0.645582,-0.319281,0.00835353,0,0,-0, -2.96159,-1.19159,-2.93159,0.274586,0.00980665,9.81646
1.73487e+09,1734874276553613479, 0,0,0, -0.645582,-0.319281,0.00835353,0,0,-0, -2.96159,-1.19159,-2.93159,0.313813,0.00980665,9.77723
1.73487e+09,1734874276563619423, 0,0,0, -0.645582,-0.319281,0.00835353,0,0,-0, -2.96159,-1.19159,-2.93159,0.313813,0.00980665,9.77723
1.73487e+09,1734874276573611719, 0,0,0, -0.645582,-0.319281,0.00835353,0,0,-0, -2.96159,-1.19159,-2.93159,0.313813,0.00980665,9.81646
1.73487e+09,1734874276583690458, 0,0,0, -0.645582,-0.319281,0.00835353,0,0,-0, -2.96159,-1.19159,-2.93159,0.353039,0.0490333,9.80665
1.73487e+09,1734874276593648480, 0,0,0, -0.645582,-0.319281,0.00835353,0,0,-0, -2.96159,-1.19159,-2.93159,0.353039,0.00980665,9.81646
1.73487e+09,1734874276603571271, 0,0,0, -0.645582,-0.319281,0.00835353,0,0,-0, -2.96159,-1.19159,-2.93159,0.313813,0.0490333,9.80665
1.73487e+09,1734874276613608474, 0,0,0, -0.645582,-0.319281,0.00835353,0,0,-0, -2.96159,-1.19159,-2.93159,0.313813,0.00980665,9.81646
1.73487e+09,1734874276623623678, 0,0,0, -0.645582,-0.319281,0.00835353,0,0,-0, -2.96159,-1.19159,-2.93159,0.313813,0.00980665,9.84588
1.73487e+09,1734874276633693749, 0,0,0, -0.645582,-0.319281,0.00835353,0,0,-0, -2.96159,-1.19159,-2.93159,0.313813,0.00980665,9.81646
1.73487e+09,1734874276643613549, 0,0,0, -0.645582,-0.319281,0.00835353,0,0,-0, -2.96159,-1.19159,-2.93159,0.353039,0.0490333,9.80665
1.73487e+09,1734874276653608068, 0,0,0, -0.645582,-0.319281,0.00835353,0,0,-0, -2.96159,-1.19159,-2.93159,0.353039,0.0490333,9.80665
1.73487e+09,1734874276663608088, 0,0,0, -0.645582,-0.319281,0.00835353,0,0,-0, -2.96159,-1.19159,-2.93159,0.353039,0.0490333,9.78704
1.73487e+09,1734874276673582103, 0,0,0, -0.645582,-0.319281,0.00835353,0,0,-0, -2.96159,-1.19159,-2.93159,0.353039,0.0490333,9.78704
1.73487e+09,1734874276683679669, 0,0,0, -0.645582,-0.319281,0.00835353,0,0,-0, -2.96159,-1.19159,-2.93159,0.313813,0.00980665,9.77723
1.73487e+09,1734874276693624894, 0,0,0, -0.645582,-0.319281,0.00835353,0,0,-0, -2.96159,-1.19159,-2.93159,0.313813,0.00980665,9.77723
1.73487e+09,1734874276703683202, 0,0,0, -0.645582,-0.319281,0.00835353,0,0,-0, -2.96159,-1.19159,-2.93159,0.313813,0.00980665,9.81646
1.73487e+09,1734874276713659363, 0,0,0, -0.645582,-0.319281,0.00835353,0,0,-0, -2.96159,-1.19159,-2.93159,0.353039,0.0490333,9.85568
1.73487e+09,1734874276723658723, 0,0,0, -0.645582,-0.319281,0.00835353,0,0,-0, -2.96159,-1.19159,-2.93159,0.353039,0.0490333,9.80665
1.73487e+09,1734874276733658451, 0,0,0, -0.645582,-0.319281,0.00835353,0,0,-0, -2.96159,-1.19159,-2.93159,0.353039,0.00980665,9.81646
1.73487e+09,1734874276743615796, 0,0,0, -0.645582,-0.319281,0.00835353,0,0,-0, -2.96159,-1.19159,-2.93159,0.313813,0.00980665,9.81646
1.73487e+09,1734874276753611753, 0,0,0, -0.645582,-0.319281,0.00835353,0,0,-0, -2.96159,-1.19159,-2.93159,0.313813,0.0490333,9.80665
1.73487e+09,1734874276763606990, 0,0,0, -0.645582,-0.319281,0.00835353,0,0,-0, -2.96159,-1.19159,-2.93159,0.353039,0.0490333,9.80665
1.73487e+09,1734874276773611445, 0,0,0, -0.645582,-0.319281,0.00835353,0,0,-0, -2.96159,-1.19159,-2.93159,0.313813,0.0490333,9.80665
1.73487e+09,1734874276783611589, 0,0,0, -0.645582,-0.319281,0.00835353,0,0,-0, -2.96159,-1.19159,-2.93159,0.313813,0.0490333,9.80665
1.73487e+09,1734874276793657574, 0,0,0, -0.645582,-0.319281,0.00835353,0,0,-0, -2.96159,-1.19159,-2.93159,0.313813,0.00980665,9.81646
1.73487e+09,1734874276803609726, 0,0,0, -0.645582,-0.319281,0.00835353,0,0,-0, -2.96159,-1.19159,-2.93159,0.353039,0.00980665,9.81646
1.73487e+09,1734874276813656067, 0,0,0, -0.645582,-0.319281,0.00835353,0,0,-0, -2.96159,-1.19159,-2.93159,0.313813,0.0490333,9.80665
1.73487e+09,1734874276823680345, 0,0,0, -0.645582,-0.319281,0.00835353,0,0,-0, -2.96159,-1.19159,-2.93159,0.313813,0.0490333,9.85568
1.73487e+09,1734874276833609659, 0,0,0, -0.645582,-0.319281,0.00835353,0,0,-0, -2.96159,-1.19159,-2.93159,0.313813,0.00980665,9.81646
1.73487e+09,1734874276843608526, 0,0,0, -0.645582,-0.319281,0.00835353,0,0,-0, -2.96159,-1.19159,-2.93159,0.353039,0.00980665,9.81646
1.73487e+09,1734874276853609067, 0,0,0, -0.645582,-0.319281,0.00835353,0,0,-0, -2.96159,-1.19159,-2.93159,0.313813,0.00980665,9.81646
1.73487e+09,1734874276863615239, 0,0,0, -0.645582,-0.319281,0.00835353,0,0,-0, -2.96159,-1.19159,-2.93159,0.313813,0.00980665,9.81646
1.73487e+09,1734874276873628880, 0,0,0, -0.645582,-0.319281,0.00835353,0,0,-0, -2.96159,-1.19159,-2.93159,0.353039,0.00980665,9.81646
1.73487e+09,1734874276883679689, 0,0,0, -0.645582,-0.319281,0.00835353,0,0,-0, -2.96159,-1.19159,-2.93159,0.313813,0.00980665,9.77723
1.73487e+09,1734874276893609526, 0,0,0, -0.645582,-0.319281,0.00835353,0,0,-0, -2.96159,-1.19159,-2.93159,0.313813,0.00980665,9.81646
1.73487e+09,1734874276903634431, 0,0,0, -0.645582,-0.319281,0.00835353,0,0,-0, -2.96159,-1.19159,-2.93159,0.313813,0.00980665,9.81646
1.73487e+09,1734874276913609233, 0,0,0, -0.645582,-0.319281,0.00835353,0,0,-0, -2.96159,-1.19159,-2.93159,0.313813,0.00980665,9.81646
1.73487e+09,1734874276923680300, 0,0,0, -0.645582,-0.319281,0.00835353,0,0,-0, -2.96159,-1.19159,-2.93159,0.353039,0.0490333,9.80665
1.73487e+09,1734874276933610710, 0,0,0, -0.645582,-0.319281,0.00835353,0,0,-0, -2.96159,-1.19159,-2.93159,0.353039,0.00980665,9.81646
1.73487e+09,1734874276943679217, 0,0,0, -0.645582,-0.319281,0.00835353,0,0,-0, -2.96159,-1.19159,-2.93159,0.313813,0.0490333,9.78704
1.73487e+09,1734874276953664823, 0,0,0, -0.645582,-0.319281,0.00835353,0,0,-0, -2.96159,-1.19159,-2.93159,0.313813,0.00980665,9.81646
1.73487e+09,1734874276963577423, 0,0,0, -0.645582,-0.319281,0.00835353,0,0,-0, -2.96159,-1.19159,-2.93159,0.313813,0.00980665,9.77723
1.73487e+09,1734874276973569898, 0,0,0, -0.645582,-0.319281,0.00835353,0,0,-0, -2.96159,-1.19159,-2.93159,0.313813,0.00980665,9.81646
1.73487e+09,1734874276983573149, 0,0,0, -0.645582,-0.319281,0.00835353,0,0,-0, -2.96159,-1.19159,-2.93159,0.313813,0.00980665,9.81646
1.73487e+09,1734874276993574060, 0,0,0, -0.645582,-0.319281,0.00835353,0,0,-0, -2.96159,-1.19159,-2.93159,0.353039,0.0490333,9.85568
1.73487e+09,1734874277003630233, 0,0,0, -0.64556,-0.319259,0.00844745,-0.00450819,0.00441427,-0.0187841, -2.96159,-1.19159,-2.93159,0.353039,0.0490333,9.80665
1.73487e+09,1734874277013574672, 0,0,0, -0.645582,-0.319281,0.00835353,0.00450819,-0.00441427,0.0187841, -2.96159,-1.19159,-2.93159,0.313813,0.0490333,9.78704
1.73487e+09,1734874277023591908, 0,0,0, -0.645582,-0.319281,0.00835353,0,0,-0, -2.96159,-1.19159,-2.93159,0.313813,0.0490333,9.78704
1.73487e+09,1734874277033564426, 0,0,0, -0.645582,-0.319281,0.00835353,0,0,-0, -2.96159,-1.19159,-2.93159,0.313813,0.00980665,9.81646
1.73487e+09,1734874277043572234, 0,0,0, -0.645582,-0.319327,0.00835353,0,-0.00901637,-0, -2.96159,-1.19159,-2.93159,0.313813,0.00980665,9.81646
1.73487e+09,1734874277053588862, 0,0,0, -0.645582,-0.319327,0.00835353,0,0,-0, -2.96159,-1.19159,-2.93159,0.313813,0.00980665,9.81646
1.73487e+09,1734874277063576366, 0,0,0, -0.645604,-0.319349,0.00825961,0,0,-0, -2.96159,-1.19159,-2.93159,0.392266,0.00980665,9.85568
1.73487e+09,1734874277073663849, 0,0,0, -0.645604,-0.319349,0.00825961,0,0,-0, -2.96159,-1.20159,-2.93159,0.313813,0.0490333,9.78704
1.73487e+09,1734874277083571708, 0,0,0, -0.645604,-0.319349,0.00825961,0,0,-0, -2.96159,-1.20159,-2.93159,0.353039,0.00980665,9.81646
1.73487e+09,1734874277093610583, 0,0,0, -0.645604,-0.319349,0.00825961,0,0,-0, -2.96159,-1.20159,-2.93159,0.353039,0.00980665,9.81646
1.73487e+09,1734874277103609027, 0,0,0, -0.645604,-0.319394,0.00825961,0,0,-0, -2.96159,-1.20159,-2.93159,0.313813,0.0490333,9.80665
1.73487e+09,1734874277113681461, 0,0,0, -0.645604,-0.319394,0.00825961,0,0,-0, -2.96159,-1.20159,-2.93159,0.392266,0.0490333,9.81646
1.73487e+09,1734874277123680562, 0,0,0, -0.645604,-0.319394,0.00825961,0,0,-0, -2.96159,-1.20159,-2.93159,0.313813,0.0490333,9.78704
1.73487e+09,1734874277133651558, 0,0,0, -0.645604,-0.319394,0.00825961,0,0,-0, -2.96159,-1.20159,-2.93159,0.313813,0.0490333,9.78704
1.73487e+09,1734874277143609143, 0,0,0, -0.645604,-0.319394,0.00825961,0,0,-0, -2.96159,-1.20159,-2.93159,0.313813,0.0490333,9.78704
1.73487e+09,1734874277153682684, 0,0,0, -0.645604,-0.319394,0.00825961,0,0,-0, -2.96159,-1.20159,-2.93159,0.313813,0.0490333,9.80665
1.73487e+09,1734874277163684495, 0,0,0, -0.645604,-0.319394,0.00825961,0,0,-0, -2.96159,-1.20159,-2.93159,0.313813,0.00980665,9.77723
1.73487e+09,1734874277173642675, 0,0,0, -0.645604,-0.319394,0.00825961,0,0,-0, -2.96159,-1.20159,-2.93159,0.313813,0.00980665,9.81646
1.73487e+09,1734874277183678303, 0,0,0, -0.645604,-0.319394,0.00825961,0,0,-0, -2.96159,-1.20159,-2.93159,0.313813,0.00980665,9.84588
1.73487e+09,1734874277193608399, 0,0,0, -0.645604,-0.319394,0.00825961,0,0,-0, -2.96159,-1.20159,-2.93159,0.353039,0.00980665,9.81646
1.73487e+09,1734874277203675310, 0,0,0, -0.645604,-0.319394,0.00825961,0,0,-0, -2.96159,-1.20159,-2.93159,0.313813,0.00980665,9.77723
1.73487e+09,1734874277213681608, 0,0,0, -0.645626,-0.319416,0.00816569,0,0,-0, -2.96159,-1.20159,-2.93159,0.313813,0.0490333,9.80665
1.73487e+09,1734874277223611514, 0,0,0, -0.645626,-0.319416,0.00816569,0,0,-0, -2.96159,-1.20159,-2.93159,0.313813,0.0490333,9.80665
1.73487e+09,1734874277233568870, 0,0,0, -0.645626,-0.319416,0.00816569,0,0,-0, -2.96159,-1.20159,-2.93159,0.313813,0.0490333,9.80665
1.73487e+09,1734874277243675226, 0,0,0, -0.645626,-0.319416,0.00816569,0,0,-0, -2.96159,-1.20159,-2.93159,0.313813,0.0490333,9.80665
1.73487e+09,1734874277253682054, 0,0,0, -0.645626,-0.319416,0.00816569,0,0,-0, -2.96159,-1.20159,-2.93159,0.313813,0.0490333,9.80665
1.73487e+09,1734874277263609188, 0,0,0, -0.645626,-0.319416,0.00816569,0,0,-0, -2.96159,-1.20159,-2.93159,0.313813,0.0490333,9.80665
1.73487e+09,1734874277273606079, 0,0,0, -0.645626,-0.319416,0.00816569,0,0,-0, -2.96159,-1.20159,-2.93159,0.313813,0.00980665,9.77723
1.73487e+09,1734874277283680758, 0,0,0, -0.645626,-0.319416,0.00816569,0,0,-0, -2.96159,-1.20159,-2.93159,0.313813,0.0490333,9.80665
1.73487e+09,1734874277293617036, 0,0,0, -0.645626,-0.319416,0.00816569,0,0,-0, -2.96159,-1.20159,-2.93159,0.353039,0.0490333,9.80665
1.73487e+09,1734874277303611632, 0,0,0, -0.645626,-0.319416,0.00816569,0,0,-0, -2.96159,-1.20159,-2.93159,0.353039,0.0490333,9.80665
1.73487e+09,1734874277313678295, 0,0,0, -0.645626,-0.319416,0.00816569,0,0,-0, -2.96159,-1.20159,-2.93159,0.353039,0.0490333,9.80665
1.73487e+09,1734874277323613848, 0,0,0, -0.645626,-0.319416,0.00816569,0,0,-0, -2.96159,-1.20159,-2.93159,0.353039,0.0490333,9.80665
1.73487e+09,1734874277333610187, 0,0,0, -0.645626,-0.319416,0.00816569,0,0,-0, -2.96159,-1.20159,-2.93159,0.313813,0.0490333,9.80665
1.73487e+09,1734874277343610070, 0,0,0, -0.645626,-0.319416,0.00816569,0.00450819,0.00441427,-0.0187841, -2.96159,-1.20159,-2.93159,0.353039,0.0490333,9.78704
1.73487e+09,1734874277353682938, 0,0,0, -0.645648,-0.319438,0.00807177,0.00450819,-0.00441427,0.0187841, -2.96159,-1.20159,-2.93159,0.353039,0.0490333,9.78704
1.73487e+09,1734874277363612832, 0,0,0, -0.645671,-0.319461,0.00797785,0.00450819,-0.00441427,0.0187841, -2.96159,-1.20159,-2.93159,0.313813,0.00980665,9.81646
1.73487e+09,1734874277373679261, 0,0,0, -0.645693,-0.319483,0.00788393,0,0,-0, -2.95159,-1.20159,-2.93159,0.274586,-0.02942,9.80665
1.73487e+09,1734874277383573073, 0,0,0, -0.645715,-0.31955,0.00779001,0,-0.00901637,-0, -2.95159,-1.20159,-2.93159,0.23536,-0.0980665,9.80665
1.73487e+09,1734874277393568262, 0,0,0, -0.645737,-0.319573,0.00769609,0.00450819,-0.00441427,0.0187841, -2.95159,-1.20159,-2.93159,0.274586,-0.02942,9.80665
1.73487e+09,1734874277403611913, 0,0,0, -0.64576,-0.319595,0.00760217,0,0,-0, -2.95159,-1.20159,-2.93159,0.470719,-0.02942,9.85568
1.73487e+09,1734874277413614127, 0,0,0, -0.645759,-0.319684,0.00741433,0.00450819,-0.00460211,-0.0187841, -2.95159,-1.20159,-2.93159,0.392266,-0.0588399,9.77723
1.73487e+09,1734874277423613228, 0,0,0, -0.645781,-0.319706,0.00732041,0.00450819,-0.00441427,0.0187841, -2.95159,-1.21159,-2.93159,0.353039,-0.02942,9.80665
1.73487e+09,1734874277433606187, 0,0,0, -0.645758,-0.319773,0.00722649,0.00450819,0.00441427,-0.0187841, -2.96159,-1.21159,-2.94159,0.431493,-0.0588399,9.8851
1.73487e+09,1734874277443610326, 0,0,0, -0.645758,-0.319818,0.00722649,0,-0.00901637,-0, -2.96159,-1.20159,-2.95159,0.392266,-0.02942,9.77723
1.73487e+09,1734874277453679139, 0,0,0, -0.645758,-0.319862,0.00703865,0.00450819,-0.00441427,0.0187841, -2.96159,-1.20159,-2.95159,0.392266,-0.02942,9.77723
1.73487e+09,1734874277463676117, 0,0,0, -0.645758,-0.319862,0.00703865,0.00450819,-0.00441427,0.0187841, -2.96159,-1.20159,-2.96159,0.500139,0.0882598,9.93414
1.73487e+09,1734874277473684034, 0,0,0, -0.645803,-0.319907,0.0068508,0.00450819,-0.00441427,0.0187841, -2.95159,-1.20159,-2.96159,0.353039,0.00980665,9.70858
1.73487e+09,1734874277483659114, 0,0,0, -0.645825,-0.319974,0.00675688,0.00450819,-0.0134306,0.0187841, -2.95159,-1.21159,-2.97159,0.274586,0.00980665,9.81646
1.73487e+09,1734874277493647732, 0,0,0, -0.645802,-0.319996,0.00666296,0.00450819,0.00441427,-0.0187841, -2.96159,-1.21159,-2.97159,0.23536,0.00980665,9.8851
1.73487e+09,1734874277503646689, 0,0,0, -0.645846,-0.320086,0.00647512,0.00450819,-0.0134306,0.0187841, -2.96159,-1.20159,-2.98159,0.313813,-0.02942,9.78704
1.73487e+09,1734874277513610855, 0,0,0, -0.645846,-0.32013,0.00628728,0.00450819,-0.00441427,0.0187841, -2.96159,-1.20159,-2.99159,0.500139,-0.02942,9.80665
1.73487e+09,1734874277523610566, 0,0,0, -0.645846,-0.320219,0.00609944,0.00450819,-0.0134306,0.0187841, -2.96159,-1.20159,-2.99159,0.353039,-0.02942,9.78704
1.73487e+09,1734874277533621022, 0,0,0, -0.645868,-0.32033,0.00581768,0.00450819,-0.0134306,0.0187841, -2.96159,-1.20159,-3.00159,0.274586,-0.17652,9.81646
1.73487e+09,1734874277543613742, 0,0,0, -0.645867,-0.32042,0.00562984,0,-0.00901637,-0, -2.96159,-1.20159,-3.00159,0.274586,-0.17652,9.81646
1.73487e+09,1734874277553677324, 0,0,0, -0.645822,-0.320464,0.00562984,-0.00450819,-0.00460211,-0.0187841, -2.96159,-1.20159,-3.02159,0.353039,-0.0588399,9.80665
1.73487e+09,1734874277563678932, 0,0,0, -0.645844,-0.320576,0.00534807,0.00450819,-0.0134306,0.0187841, -2.96159,-1.20159,-3.02159,0.353039,-0.0588399,9.80665
1.73487e+09,1734874277573682736, 0,0,0, -0.645821,-0.320598,0.00525415,0.00450819,0.00441427,-0.0187841, -2.96159,-1.20159,-3.03159,0.392266,0.0490333,9.738
1.73487e+09,1734874277583645492, 0,0,0, -0.645843,-0.320665,0.00516023,0,0,-0, -2.96159,-1.20159,-3.04159,0.392266,0.0490333,9.77723
1.73487e+09,1734874277593685530, 0,0,0, -0.645843,-0.320665,0.00516023,0,0,-0, -2.97159,-1.20159,-3.06159,0.23536,0.0882598,9.81646
1.73487e+09,1734874277603683326, 0,0,0, -0.645843,-0.320665,0.00516023,0,0,-0, -2.97159,-1.20159,-3.07159,0.274586,0.166713,9.85568
1.73487e+09,1734874277613615240, 0,0,0, -0.645843,-0.320665,0.00516023,0,0,-0, -2.97159,-1.19159,-3.08159,0.353039,0.166713,9.80665
1.73487e+09,1734874277623614772, 0,0,0, -0.645843,-0.320665,0.00516023,0,0,-0, -2.97159,-1.19159,-3.08159,0.353039,0.245166,9.78704
1.73487e+09,1734874277633610253, 0,0,0, -0.645843,-0.320665,0.00516023,0,0,-0, -2.97159,-1.20159,-3.08159,0.353039,0.166713,9.89491
1.73487e+09,1734874277643599441, 0,0,0, -0.645866,-0.320687,0.00506631,0.00450819,-0.00441427,0.0187841, -2.97159,-1.20159,-3.08159,0.313813,0.00980665,9.77723
1.73487e+09,1734874277653608092, 0,0,0, -0.645866,-0.320687,0.00506631,0,0,-0, -2.98159,-1.19159,-3.08159,0.313813,0.0490333,9.85568
1.73487e+09,1734874277663679345, 0,0,0, -0.645866,-0.320687,0.00506631,0,0,-0, -2.98159,-1.19159,-3.08159,0.353039,0.00980665,9.81646
1.73487e+09,1734874277673570130, 0,0,0, -0.645843,-0.320665,0.00516023,-0.00450819,0.00441427,-0.0187841, -2.98159,-1.19159,-3.08159,0.313813,-0.02942,9.80665
1.73487e+09,1734874277683610283, 0,0,0, -0.645843,-0.320665,0.00516023,0,0,-0, -2.98159,-1.19159,-3.08159,0.353039,0.00980665,9.77723
1.73487e+09,1734874277693610681, 0,0,0, -0.645843,-0.320665,0.00516023,0,0,-0, -2.98159,-1.19159,-3.08159,0.353039,0.00980665,9.77723
1.73487e+09,1734874277703570141, 0,0,0, -0.645843,-0.320665,0.00516023,0,0,-0, -2.98159,-1.19159,-3.08159,0.353039,0.0882598,9.81646
1.73487e+09,1734874277713655527, 0,0,0, -0.645843,-0.320665,0.00516023,0,0,-0, -2.98159,-1.19159,-3.08159,0.353039,0.0882598,9.81646
1.73487e+09,1734874277723658977, 0,0,0, -0.645866,-0.320687,0.00506631,0,0,-0, -2.98159,-1.19159,-3.08159,0.353039,0.00980665,9.81646
1.73487e+09,1734874277733662588, 0,0,0, -0.645866,-0.320687,0.00506631,0,0,-0, -2.98159,-1.19159,-3.08159,0.353039,0.00980665,9.81646
1.73487e+09,1734874277743624114, 0,0,0, -0.645866,-0.320687,0.00506631,0,0,-0, -2.98159,-1.19159,-3.08159,0.313813,0.00980665,9.77723
1.73487e+09,1734874277753657265, 0,0,0, -0.645866,-0.320687,0.00506631,0,0,-0, -2.98159,-1.19159,-3.08159,0.353039,0.00980665,9.81646
1.73487e+09,1734874277763648936, 0,0,0, -0.645866,-0.320687,0.00506631,0,0,-0, -2.98159,-1.19159,-3.08159,0.353039,0.00980665,9.81646
1.73487e+09,1734874277773608376, 0,0,0, -0.645866,-0.320687,0.00506631,0,0,-0, -2.98159,-1.19159,-3.08159,0.353039,0.0490333,9.80665
1.73487e+09,1734874277783657988, 0,0,0, -0.645866,-0.320687,0.00506631,0,0,-0, -2.98159,-1.19159,-3.08159,0.353039,0.0490333,9.80665
1.73487e+09,1734874277793672414, 0,0,0, -0.645866,-0.320687,0.00506631,0,0,-0, -2.98159,-1.19159,-3.08159,0.353039,0.0490333,9.80665
1.73487e+09,1734874277803658232, 0,0,0, -0.645866,-0.320687,0.00506631,0,0,-0, -2.98159,-1.19159,-3.08159,0.313813,0.0490333,9.85568
1.73487e+09,1734874277813657723, 0,0,0, -0.645866,-0.320687,0.00506631,0,0,-0, -2.98159,-1.19159,-3.08159,0.392266,0.00980665,9.80665
1.73487e+09,1734874277823615507, 0,0,0, -0.645866,-0.320687,0.00506631,0,0,-0, -2.98159,-1.19159,-3.08159,0.353039,0.00980665,9.81646
1.73487e+09,1734874277833660414, 0,0,0, -0.645866,-0.320687,0.00506631,0,0,-0, -2.98159,-1.19159,-3.08159,0.313813,0.00980665,9.81646
1.73487e+09,1734874277843650499, 0,0,0, -0.645866,-0.320687,0.00506631,0,0,-0, -2.98159,-1.19159,-3.08159,0.313813,0.0490333,9.80665
1.73487e+09,1734874277853569374, 0,0,0, -0.645866,-0.320687,0.00506631,0,0,-0, -2.98159,-1.19159,-3.08159,0.353039,0.00980665,9.81646
1.73487e+09,1734874277863659592, 0,0,0, -0.645866,-0.320687,0.00506631,0,0,-0, -2.98159,-1.19159,-3.08159,0.313813,0.00980665,9.81646
1.73487e+09,1734874277873573295, 0,0,0, -0.645866,-0.320687,0.00506631,0,0,-0, -2.98159,-1.19159,-3.08159,0.313813,0.00980665,9.84588
1.73487e+09,1734874277883658882, 0,0,0, -0.645866,-0.320687,0.00506631,0,0,-0, -2.98159,-1.19159,-3.08159,0.353039,0.0490333,9.78704
1.73487e+09,1734874277893605526, 0,0,0, -0.645866,-0.320687,0.00506631,0,0,-0, -2.98159,-1.19159,-3.08159,0.353039,0.0490333,9.78704
1.73487e+09,1734874277903586675, 0,0,0, -0.645866,-0.320687,0.00506631,0,0,-0, -2.98159,-1.19159,-3.08159,0.313813,0.00980665,9.77723
1.73487e+09,1734874277913665104, 0,0,0, -0.645866,-0.320687,0.00506631,0,0,-0, -2.98159,-1.19159,-3.08159,0.313813,0.00980665,9.77723
1.73487e+09,1734874277923571516, 0,0,0, -0.645866,-0.320687,0.00506631,0,0,-0, -2.98159,-1.19159,-3.08159,0.353039,0.00980665,9.81646
1.73487e+09,1734874277933603392, 0,0,0, -0.645866,-0.320687,0.00506631,0,0,-0, -2.98159,-1.19159,-3.08159,0.353039,0.00980665,9.84588
1.73487e+09,1734874277943652221, 0,0,0, -0.645866,-0.320687,0.00506631,0,0,-0, -2.98159,-1.19159,-3.08159,0.313813,0.0490333,9.78704
1.73487e+09,1734874277953570193, 0,0,0, -0.645866,-0.320687,0.00506631,0,0,-0, -2.98159,-1.19159,-3.08159,0.313813,0.00980665,9.77723
1.73487e+09,1734874277963662402, 0,0,0, -0.645866,-0.320687,0.00506631,0,0,-0, -2.98159,-1.19159,-3.08159,0.313813,0.00980665,9.77723
1.73487e+09,1734874277973657942, 0,0,0, -0.645866,-0.320687,0.00506631,0,0,-0, -2.98159,-1.19159,-3.08159,0.313813,0.0490333,9.80665
1.73487e+09,1734874277983662511, 0,0,0, -0.645866,-0.320687,0.00506631,0,0,-0, -2.98159,-1.19159,-3.08159,0.353039,0.00980665,9.84588
1.73487e+09,1734874277993636343, 0,0,0, -0.645866,-0.320687,0.00506631,0,0,-0, -2.98159,-1.19159,-3.08159,0.353039,0.0490333,9.85568
1.73487e+09,1734874278003566950, 0,0,0, -0.645866,-0.320687,0.00506631,0,0,-0, -2.98159,-1.19159,-3.08159,0.313813,0.0490333,9.78704
1.73487e+09,1734874278013667982, 0,0,0, -0.645843,-0.320665,0.00516023,-0.00450819,0.00441427,-0.0187841, -2.98159,-1.19159,-3.08159,0.313813,0.0490333,9.78704
1.73487e+09,1734874278023569509, 0,0,0, -0.645843,-0.320665,0.00516023,0,0,-0, -2.97159,-1.19159,-3.08159,0.313813,0.00980665,9.81646
1.73487e+09,1734874278033677190, 0,0,0, -0.645843,-0.32071,0.00516023,0,-0.00901637,-0, -2.97159,-1.19159,-3.08159,0.313813,0.00980665,9.81646
1.73487e+09,1734874278043662428, 0,0,0, -0.645843,-0.32071,0.00516023,0,0,-0, -2.97159,-1.19159,-3.08159,0.313813,0.00980665,9.77723
1.73487e+09,1734874278053652068, 0,0,0, -0.645843,-0.32071,0.00516023,0,0,-0, -2.97159,-1.19159,-3.08159,0.353039,0.00980665,9.81646
1.73487e+09,1734874278063660797, 0,0,0, -0.645843,-0.32071,0.00516023,0,0,-0, -2.97159,-1.19159,-3.08159,0.353039,0.00980665,9.81646
1.73487e+09,1734874278073568248, 0,0,0, -0.645843,-0.32071,0.00516023,0,0,-0, -2.97159,-1.19159,-3.09159,0.313813,0.00980665,9.81646
1.73487e+09,1734874278083571176, 0,0,0, -0.645843,-0.32071,0.00516023,0,0,-0, -2.97159,-1.19159,-3.09159,0.353039,0.00980665,9.81646
1.73487e+09,1734874278093569302, 0,0,0, -0.645843,-0.32071,0.00516023,0,0,-0, -2.97159,-1.19159,-3.09159,0.313813,0.0490333,9.80665
1.73487e+09,1734874278103666623, 0,0,0, -0.645843,-0.32071,0.00516023,0,0,-0, -2.97159,-1.19159,-3.09159,0.353039,0.00980665,9.81646
1.73487e+09,1734874278113577634, 0,0,0, -0.645843,-0.32071,0.00516023,0,0,-0, -2.97159,-1.19159,-3.09159,0.353039,0.0490333,9.80665
1.73487e+09,1734874278123570108, 0,0,0, -0.645843,-0.32071,0.00516023,0,0,-0, -2.97159,-1.19159,-3.09159,0.353039,0.0490333,9.80665
1.73487e+09,1734874278133661739, 0,0,0, -0.645843,-0.32071,0.00516023,0,0,-0, -2.97159,-1.19159,-3.09159,0.353039,0.0490333,9.80665
1.73487e+09,1734874278143657188, 0,0,0, -0.645843,-0.32071,0.00516023,0,0,-0, -2.97159,-1.19159,-3.09159,0.313813,0.00980665,9.81646
1.73487e+09,1734874278153573443, 0,0,0, -0.645843,-0.32071,0.00516023,0,0,-0, -2.96159,-1.19159,-3.09159,0.353039,0.0490333,9.85568
1.73487e+09,1734874278163570296, 0,0,0, -0.645843,-0.32071,0.00516023,0,0,-0, -2.96159,-1.19159,-3.09159,0.353039,0.00980665,9.81646
1.73487e+09,1734874278173609931, 0,0,0, -0.645821,-0.320688,0.00525415,0,0,-0, -2.96159,-1.19159,-3.09159,0.353039,0.0490333,9.80665
1.73487e+09,1734874278183568845, 0,0,0, -0.645821,-0.320688,0.00525415,0,0,-0, -2.96159,-1.19159,-3.09159,0.313813,0.0490333,9.80665
1.73487e+09,1734874278193573244, 0,0,0, -0.645821,-0.320688,0.00525415,0,0,-0, -2.96159,-1.19159,-3.09159,0.353039,0.0490333,9.80665
1.73487e+09,1734874278203570962, 0,0,0, -0.645821,-0.320688,0.00525415,0,0,-0, -2.96159,-1.19159,-3.09159,0.353039,0.0490333,9.80665
1.73487e+09,1734874278213642931, 0,0,0, -0.645821,-0.320688,0.00525415,0,0,-0, -2.95159,-1.19159,-3.09159,0.313813,0.0490333,9.80665
1.73487e+09,1734874278223567874, 0.105882,0,0, -0.645843,-0.32071,0.00516023,0.00450819,-0.00441427,0.0187841, -2.95159,-1.19159,-3.09159,0.353039,0.00980665,9.81646
1.73487e+09,1734874278233501634, 0.105882,0,0, -0.645843,-0.32071,0.00516023,0,0,-0, -2.95159,-1.19159,-3.09159,0.353039,0.00980665,9.81646
1.73487e+09,1734874278243613655, 0.105882,0,0, -0.645865,-0.320733,0.00525415,-0.00450819,-0.0134306,0.0187841, -2.95159,-1.18159,-3.09159,0.313813,0.00980665,9.84588
1.73487e+09,1734874278253609660, 0.247059,0,0, -0.645865,-0.320733,0.00525415,0,0,-0, -2.95159,-1.18159,-3.09159,0.313813,0.00980665,9.81646
1.73487e+09,1734874278263577424, 0.247059,0,0, -0.645843,-0.320711,0.00534807,0,0,-0, -2.95159,-1.18159,-3.09159,0.313813,0.0490333,9.80665
1.73487e+09,1734874278273608201, 0.247059,0,0, -0.645843,-0.320711,0.00534807,0,0,-0, -2.95159,-1.18159,-3.09159,0.353039,0.0882598,9.81646
1.73487e+09,1734874278283609886, 0.482353,0,0, -0.64582,-0.320733,0.00525415,0,0,-0, -2.95159,-1.18159,-3.09159,0.353039,0.0490333,9.80665
1.73487e+09,1734874278293679243, 0.482353,0,0, -0.64582,-0.320733,0.00525415,0,0,-0, -2.95159,-1.18159,-3.09159,0.353039,0.0490333,9.80665
1.73487e+09,1734874278303609153, 0.482353,0,0, -0.645843,-0.320711,0.00534807,0,0,-0, -2.95159,-1.18159,-3.09159,0.313813,0.00980665,9.81646
1.73487e+09,1734874278313590546, 0.686275,0,0, -0.645843,-0.320711,0.00534807,0,0,-0, -2.95159,-1.19159,-3.09159,0.313813,0.00980665,9.81646
1.73487e+09,1734874278323682283, 0.686275,0,0, -0.645843,-0.320711,0.00534807,0,0,-0, -2.95159,-1.19159,-3.09159,0.313813,0.00980665,9.81646
1.73487e+09,1734874278333678981, 0.686275,0,0, -0.645843,-0.320711,0.00534807,0,0,-0, -2.95159,-1.19159,-3.09159,0.353039,0.0490333,9.85568
1.73487e+09,1734874278343569927, 0.803922,0,0, -0.645843,-0.320711,0.00534807,0,0,-0, -2.94159,-1.19159,-3.10159,0.353039,0.0490333,9.80665
1.73487e+09,1734874278353609239, 0.803922,0,0, -0.64582,-0.320733,0.00525415,0,0,-0, -2.94159,-1.19159,-3.10159,0.353039,0.0490333,9.80665
1.73487e+09,1734874278363660917, 0.803922,0,0, -0.645753,-0.32071,0.00516023,0.00450819,0.00441427,-0.0187841, -2.94159,-1.19159,-3.10159,0.392266,0.00980665,9.80665
1.73487e+09,1734874278373665640, 0.843137,0,0, -0.645685,-0.320686,0.00506631,0.00450819,0.0134306,-0.0187841, -2.94159,-1.19159,-3.10159,0.617819,0.0490333,9.80665
1.73487e+09,1734874278383610724, 0.843137,0,0, -0.645595,-0.320731,0.00506631,-0.00450819,0.00422642,-0.0563523, -2.94159,-1.18159,-3.10159,0.617819,0.127486,9.84588
1.73487e+09,1734874278393659165, 0.843137,0,0, -0.645437,-0.320797,0.00497239,0,0.00864069,-0.0751364, -2.94159,-1.18159,-3.11159,0.657046,-0.02942,9.89491
1.73487e+09,1734874278403608982, 0.913725,0,0, -0.645257,-0.320797,0.00516023,-0.00450818,0.013055,-0.0939205, -2.94159,-1.18159,-3.11159,0.696272,-0.17652,10.042
1.73487e+09,1734874278413608056, 0.913725,0,0, -0.645054,-0.320775,0.005442,-0.00450818,0.013055,-0.0939205, -2.95159,-1.18159,-3.11159,0.470719,-0.17652,9.5811
1.73487e+09,1734874278423676355, 0.913725,0,0, -0.644919,-0.320775,0.00562984,-0.00901637,0.0174692,-0.112705, -2.95159,-1.18159,-3.11159,0.470719,-0.17652,9.5811
1.73487e+09,1734874278433568220, 0.984314,0,0, -0.644422,-0.320819,0.00600552,-0.00901637,0.0262977,-0.150273, -2.94159,-1.17159,-3.11159,0.774725,-0.02942,9.81646
1.73487e+09,1734874278443577273, 0.984314,0,0, -0.644219,-0.320886,0.00609944,-0.00450818,0.0216956,-0.169057, -2.94159,-1.17159,-3.11159,0.774725,-0.02942,9.81646
1.73487e+09,1734874278453609309, 0.984314,0,0, -0.644039,-0.320886,0.00628728,-0.00901637,0.0262977,-0.150273, -2.93159,-1.17159,-3.10159,0.735499,0.127486,9.69878
1.73487e+09,1734874278463676069, 1,0,0, -0.643363,-0.32084,0.00703864,-0.0135246,0.0305242,-0.206625, -2.93159,-1.17159,-3.09159,1.07873,0.0490333,9.97336
1.73487e+09,1734874278473608719, 1,0,0, -0.642392,-0.321127,0.00713257,0.00450818,0.0479934,-0.31933, -2.93159,-1.16159,-3.07159,0.892405,0.20594,9.93414
1.73487e+09,1734874278483677148, 1,0,0, -0.64203,-0.32126,0.00713257,0,0.0435791,-0.300546, -2.95159,-1.16159,-3.01159,1.23564,-0.254973,9.77723
1.73487e+09,1734874278493679126, 1,0,0, -0.640631,-0.321477,0.00769609,-0.00901637,0.0700647,-0.41325, -2.96159,-1.14159,-2.98159,1.96133,0.00980665,9.74781
1.73487e+09,1734874278503642697, 1,0,0, -0.639659,-0.321764,0.00797785,-0.00450818,0.0654626,-0.432034, -2.96159,-1.13159,-2.97159,1.46119,-0.333426,9.55168
1.73487e+09,1734874278513671632, 1,0,0, -0.638462,-0.322093,0.00807177,0,0.087534,-0.525955, -2.96159,-1.13159,-2.96159,0.961052,-0.411879,9.5909
1.73487e+09,1734874278523569229, 1,0,0, -0.637219,-0.322465,0.00779001,0.0135246,0.0831197,-0.507171, -2.96159,-1.12159,-2.96159,1.39254,-0.294199,10.091
1.73487e+09,1734874278533684452, 1,0,0, -0.635909,-0.322858,0.00722649,0.0135246,0.100965,-0.544739, -2.96159,-1.12159,-2.96159,1.73578,-0.294199,9.2869
1.73487e+09,1734874278543645040, 1,0,0, -0.634463,-0.323342,0.0068508,0.00450818,0.109605,-0.619876, -2.96159,-1.12159,-2.96159,1.73578,-0.294199,9.2869
1.73487e+09,1734874278553575085, 1,0,0, -0.63286,-0.323669,0.00675688,0,0.131864,-0.676228, -2.96159,-1.11159,-2.99159,1.39254,-0.480526,10.0812
1.73487e+09,1734874278563675227, 1,0,0, -0.632025,-0.323776,0.0068508,-0.00450819,0.136279,-0.695012, -2.96159,-1.11159,-2.99159,1.39254,-0.480526,10.0812
1.73487e+09,1734874278573642677, 1,0,0, -0.629252,-0.323869,0.00656904,0.0135246,0.180985,-0.770148, -2.96159,-1.10159,-3.01159,1.57887,-0.254973,9.50264
1.73487e+09,1734874278583573235, 1,0,0, -0.628236,-0.324155,0.00647512,0.00450817,0.144544,-0.845285, -2.97159,-1.09159,-3.04159,1.35332,-0.333426,9.24767
1.73487e+09,1734874278593615951, 1,0,0, -0.624803,-0.325259,0.00628728,0.00450818,0.134964,-0.957989, -2.96159,-1.06159,-3.13159,1.42196,-0.294199,9.32612
1.73487e+09,1734874278603681934, 1,0,0, -0.622477,-0.325899,0.00656904,-0.0135246,0.170841,-0.995558, -2.95159,-1.04159,3.11159,2.88316,-0.17652,10.6206
1.73487e+09,1734874278613673548, 1,0,0, -0.619925,-0.326582,0.0068508,0,0.183896,-1.08948, -2.96159,-1.04159,3.09159,2.27514,0.127486,10.9736
1.73487e+09,1734874278623681789, 1,0,0, -0.617014,-0.326992,0.00732041,-0.0180328,0.237243,-1.23975, -2.97159,-1.04159,3.09159,2.00056,0.284393,10.4637
1.73487e+09,1734874278633681051, 1,0,0, -0.613924,-0.327265,0.00797785,-0.0135246,0.277347,-1.33367, -2.98159,-1.03159,3.10159,2.00056,-0.372653,8.93386
1.73487e+09,1734874278643682170, 1,0,0, -0.612163,-0.327524,0.00854137,-0.0270491,0.263165,-1.46516, -2.98159,-1.03159,3.10159,2.00056,-0.372653,8.93386
1.73487e+09,1734874278653613166, 1,0,0, -0.606344,-0.327973,0.0102319,-0.0180328,0.325716,-1.57787, -2.97159,-1.02159,-3.13159,1.96133,-0.02942,9.8851
1.73487e+09,1734874278663622126, 1,0,0, -0.602956,-0.328572,0.0107955,-0.0180327,0.245508,-1.39002, -2.97159,-1.02159,-3.13159,1.96133,-0.02942,9.8851
1.73487e+09,1734874278673612557, 1,0,0, -0.599546,-0.329104,0.0123921,-0.0450818,0.227288,-1.42759, -2.97159,-1.02159,-3.09159,2.27514,-0.0980665,9.62032
1.73487e+09,1734874278683620591, 1,0,0, -0.596134,-0.329721,0.0141766,-0.0450818,0.24532,-1.42759, -2.97159,-1.03159,-3.04159,1.85346,0.284393,10.1989
1.73487e+09,1734874278693612207, 1,0,0, -0.592611,-0.330132,0.0169942,-0.0721309,0.235928,-1.50273, -2.98159,-1.02159,-2.97159,1.73578,0.00980665,11.464
1.73487e+09,1734874278703679471, 1,0,0, -0.590625,-0.33024,0.0186848,-0.0811473,0.280259,-1.653, -2.98159,-0.971593,-2.83159,1.69655,-0.137293,10.0028
1.73487e+09,1734874278713614402, 1,0,0, -0.58421,-0.330799,0.0211267,-0.0270491,0.342622,-1.80327, -2.94159,-0.941593,-2.75159,1.39254,-0.137293,8.60043
1.73487e+09,1734874278723650439, 1,0,0, -0.579964,-0.331163,0.0222538,-0.0225409,0.338396,-1.74692, -2.92159,-0.931593,-2.67159,1.88288,-0.254973,9.15941
1.73487e+09,1734874278733608813, 1,0,0, -0.577881,-0.331569,0.0224416,-0.00901638,0.306932,-1.72814, -2.92159,-0.931593,-2.67159,1.88288,-0.254973,9.15941
1.73487e+09,1734874278743656514, 1,0,0, -0.573058,-0.332473,0.0217842,0.0225409,0.435697,-2.1226, -2.94159,-0.941593,-2.52159,1.23564,-0.254973,8.98289
1.73487e+09,1734874278753609146, 1,0,0, -0.565586,-0.333981,0.0215963,-0.0270491,0.368732,-1.99112, -2.94159,-0.941593,-2.52159,1.23564,-0.254973,8.98289
1.73487e+09,1734874278763608448, 1,0,0, -0.561009,-0.333959,0.0246957,-0.072131,0.378124,-1.91598, -2.99159,-0.911593,-2.39159,0.813952,0.353039,8.43372
1.73487e+09,1734874278773658720, 1,0.113725,0, -0.556567,-0.333965,0.0261045,-0.0180328,0.405549,-1.84084, -2.99159,-0.911593,-2.39159,0.813952,0.353039,8.43372
1.73487e+09,1734874278783657907, 1,0.113725,0, -0.552515,-0.334558,0.0260106,0,0.280447,-1.61543, -2.99159,-0.911593,-2.32159,2.03978,0.353039,8.97309
1.73487e+09,1734874278793608138, 1,0.113725,0, -0.548267,-0.334904,0.027889,-0.04959,0.391555,-1.93476, -2.98159,-0.911593,-2.26159,1.23564,-0.254973,9.93414
1.73487e+09,1734874278803608241, 1,0.113725,0, -0.543286,-0.335621,0.0280768,0.0180327,0.377373,-2.06625, -2.96159,-0.901593,-2.22159,1.39254,0.323619,10.6598
1.73487e+09,1734874278813605832, 1,0.215686,0, -0.53796,-0.336573,0.0268559,0.0405737,0.488669,-2.34801, -2.95159,-0.851593,-2.18159,0.892405,0.00980665,11.3561
1.73487e+09,1734874278823605746, 1,0.215686,0, -0.532062,-0.337067,0.0258227,0.0180328,0.510928,-2.40437, -2.99159,-0.831593,-2.18159,0.0490333,0.0490333,9.12018
1.73487e+09,1734874278833598085, 1,0.223529,0, -0.526528,-0.337444,0.0259167,-0.0135245,0.497873,-2.31045, -3.01159,-0.801593,-2.19159,0.156906,0.509946,10.0028
1.73487e+09,1734874278843650105, 1,0.223529,0, -0.521015,-0.337011,0.0275133,-0.0360655,0.529524,-2.29166, -3.00159,-0.791593,-2.19159,1.46119,0.353039,5.79573
1.73487e+09,1734874278853615138, 1,0.223529,0, -0.516025,-0.337257,0.0276072,0.00901638,0.431847,-1.99112, -2.97159,-0.791593,-2.20159,1.50042,0.284393,9.38496
1.73487e+09,1734874278863613495, 1,0.247059,0, -0.511981,-0.336741,0.0279829,-0.00450819,0.44678,-1.70935, -2.96159,-0.821593,-2.22159,0.313813,-0.02942,10.6598
1.73487e+09,1734874278873678959, 1,0.247059,0, -0.507192,-0.337055,0.0268559,0.0225409,0.445089,-2.04747, -2.98159,-0.831593,-2.24159,-0.02942,0.627626,11.9641
1.73487e+09,1734874278883684028, 1,0.247059,0, -0.504592,-0.337279,0.0269498,-0.00450819,0.444526,-2.16017, -2.98159,-0.831593,-2.24159,-0.02942,0.627626,11.9641
1.73487e+09,1734874278893678886, 1,0.262745,0, -0.496077,-0.337838,0.0261045,0.0135245,0.534126,-2.27288, -3.03159,-0.771593,-2.28159,0.774725,0.00980665,11.3561
1.73487e+09,1734874278903688392, 1,0.262745,0, -0.490532,-0.337735,0.0249775,0.0315573,0.578832,-2.34801, -3.03159,-0.651593,-2.32159,0.853179,0.892405,12.3073
1.73487e+09,1734874278913680198, 1,0.262745,0, -0.484469,-0.337645,0.0220659,0.0856555,0.685714,-2.61099, -2.97159,-0.581593,-2.38159,2.68702,1.19641,7.62957
1.73487e+09,1734874278923677729, 1,0.262745,0, -0.478268,-0.337709,0.020845,0.0180328,0.573479,-2.51707, -2.91159,-0.551593,-2.47159,-0.02942,0.774725,9.19864
1.73487e+09,1734874278933613628, 1,0.262745,0, -0.472346,-0.337336,0.0198118,0.0270491,0.654814,-2.4795, -2.93159,-0.561593,-2.53159,1.15718,0.166713,8.23759
1.73487e+09,1734874278943608938, 1,0.262745,0, -0.466439,-0.33735,0.0184969,0.04959,0.587097,-2.49829, -2.96159,-0.601593,-2.59159,1.35332,0.509946,7.90416
1.73487e+09,1734874278953609635, 1,0.262745,0, -0.466439,-0.33735,0.0184969,0.04959,0.587097,-2.49829, -2.96159,-0.601593,-2.59159,1.35332,0.509946,7.90416
1.73487e+09,1734874278963612122, 1,0.262745,0, -0.454569,-0.336751,0.0178395,0.00901635,0.573854,-2.44193, -3.03159,-0.661593,-2.70159,0.961052,1.23564,12.1897
1.73487e+09,1734874278973579185, 1,0.262745,0, -0.448688,-0.336532,0.0175577,0.0135246,0.623163,-2.49829, -3.00159,-0.621593,-2.74159,1.19641,0.392266,10.6598
1.73487e+09,1734874278983613455, 1,0.262745,0, -0.442904,-0.335955,0.0167125,0.0225409,0.61471,-2.38558, -3.00159,-0.621593,-2.74159,1.19641,0.392266,10.6598
1.73487e+09,1734874278993592679, 1,0.262745,0, -0.437141,-0.335499,0.0170881,-0.00901638,0.627389,-2.55464, -2.93159,-0.571593,-2.77159,0.892405,0.127486,9.5909
1.73487e+09,1734874279003502862, 1,0.262745,0, -0.430725,-0.334961,0.0169942,0.00450822,0.68515,-2.7237, -2.90159,-0.541593,-2.79159,0.353039,1.27486,10.0126
1.73487e+09,1734874279013677935, 1,0.254902,0, -0.423893,-0.334999,0.0150219,0.0540982,0.698205,-2.81762, -2.93159,-0.541593,-2.82159,0.657046,0.774725,8.51217
1.73487e+09,1734874279023615092, 1,0.254902,0, -0.417521,-0.334473,0.0139888,0.0225409,0.69473,-2.61099, -2.97159,-0.571593,-2.87159,0.921825,0.392266,8.93386
1.73487e+09,1734874279033638301, 1,0.254902,0, -0.411539,-0.33349,0.0143644,-0.0270491,0.681675,-2.51707, -2.97159,-0.661593,-2.94159,0.774725,0.509946,8.06107
1.73487e+09,1734874279043568521, 1,0.262745,0, -0.405634,-0.331944,0.0165246,-0.04959,0.677449,-2.46072, -2.95159,-0.671593,-2.96159,0.353039,0.0882598,9.32612
1.73487e+09,1734874279053567448, 1,0.262745,0, -0.399536,-0.331231,0.0158672,0.0450819,0.681112,-2.62977, -2.93159,-0.661593,-2.99159,1.42196,1.01008,11.8857
1.73487e+09,1734874279063573869, 1,0.262745,0, -0.392839,-0.331367,0.0127678,0.0856555,0.711636,-2.8364, -2.91159,-0.651593,-3.01159,0.11768,0.127486,8.77695
1.73487e+09,1734874279073660187, 1,0.262745,0, -0.386417,-0.331127,0.0117347,0.00901641,0.672283,-2.59221, -2.90159,-0.631593,-3.02159,0.274586,0.588399,10.0126
1.73487e+09,1734874279083571553, 1,0.262745,0, -0.380525,-0.329932,0.012486,-0.00901638,0.66383,-2.4795, -2.90159,-0.611593,-3.02159,0.470719,0.853179,9.00251
1.73487e+09,1734874279093611845, 1,0.262745,0, -0.374025,-0.327519,0.0186848,-0.193852,0.738873,-2.79883, -2.91159,-0.631593,-3.03159,0.892405,0.666852,9.62032
1.73487e+09,1734874279103681901, 1,0.262745,0, -0.367591,-0.325759,0.0232869,-0.072131,0.707597,-2.74248, -2.92159,-0.681593,-3.06159,-0.411879,0.166713,11.1207
1.73487e+09,1734874279113611111, 1,0.262745,0, -0.361464,-0.324511,0.0220659,0.00901632,0.771088,-2.66734, -2.92159,-0.681593,-3.06159,-0.411879,0.166713,11.1207
1.73487e+09,1734874279123612261, 1,0.262745,0, -0.35454,-0.323543,0.0199997,0.04959,0.774563,-2.87397, -2.94159,-0.691593,-3.08159,-0.294199,0.470719,9.35554
1.73487e+09,1734874279133608947, 1,0.262745,0, -0.348533,-0.322904,0.0189666,0.00450822,0.6504,-2.46072, -2.92159,-0.681593,-3.11159,1.9221,0.0490333,8.66908
1.73487e+09,1734874279143652655, 1,0.262745,0, -0.342697,-0.321575,0.0193422,0.00901635,0.691067,-2.44193, -2.86159,-0.681593,-3.13159,0.11768,0.284393,8.94367
1.73487e+09,1734874279153588932, 1,0.262745,0, -0.337108,-0.320322,0.0205632,-0.0540982,0.646361,-2.3668, -2.86159,-0.641593,3.11159,1.15718,0.127486,10.5814
1.73487e+09,1734874279163572399, 1,0.262745,0, -0.331542,-0.319129,0.0224416,-0.0450819,0.601467,-2.32923, -2.87159,-0.621593,3.09159,-0.755112,-0.0588399,7.98261
1.73487e+09,1734874279173681042, 1,0.262745,0, -0.325817,-0.317154,0.0245079,-0.022541,0.740188,-2.53585, -2.88159,-0.631593,3.06159,0.500139,0.970858,10.3068
1.73487e+09,1734874279183572348, 1,0.262745,0, -0.319523,-0.31632,0.0228173,0.0450819,0.761883,-2.70491, -2.88159,-0.641593,3.03159,1.27486,-0.0588399,9.5811
1.73487e+09,1734874279193608941, 1,0.262745,0, -0.313411,-0.315408,0.0199997,0.0766392,0.70431,-2.49829, -2.85159,-0.661593,3.01159,-0.333426,0.745305,9.92433
1.73487e+09,1734874279203612124, 1,0.262745,0, -0.307638,-0.314321,0.0191544,0.0180327,0.691067,-2.44193, -2.82159,-0.671593,2.99159,-0.02942,0.00980665,10.7775
1.73487e+09,1734874279213678946, 1,0.262745,0, -0.302119,-0.31291,0.0195301,-0.0180328,0.656129,-2.21652, -2.84159,-0.651593,2.99159,0.00980665,0.284393,7.93358
1.73487e+09,1734874279223611143, 1,0.262745,0, -0.296975,-0.310925,0.0232869,-0.108196,0.59339,-2.14139, -2.84159,-0.651593,2.99159,0.00980665,0.284393,7.93358
1.73487e+09,1734874279233630636, 1,0.262745,0, -0.291512,-0.309356,0.0246018,0.0135246,0.65998,-2.34801, -2.89159,-0.631593,2.97159,-0.186326,0.813952,10.4343
1.73487e+09,1734874279243677798, 1,0.262745,0, -0.291512,-0.309356,0.0246018,0.0135246,0.65998,-2.34801, -2.92159,-0.611593,2.95159,-0.225553,-0.294199,10.6598
1.73487e+09,1734874279253708964, 1,0.262745,0, -0.285712,-0.308621,0.0225355,0.0676228,0.695294,-2.49829, -2.92159,-0.611593,2.95159,-0.225553,-0.294199,10.6598
1.73487e+09,1734874279263708640, 1,0.262745,0, -0.276666,-0.306729,0.0209389,-0.00901635,0.727133,-2.44193, -2.91159,-0.631593,2.93159,0.11768,0.706079,11.8464
1.73487e+09,1734874279273617263, 1,0.262745,0, -0.268485,-0.303533,0.0222538,0.0180327,0.673974,-2.25409, -2.76159,-0.621593,2.93159,0.196133,0.127486,7.89435
1.73487e+09,1734874279283696037, 1,0.262745,0, -0.263251,-0.302675,0.0227234,-0.0270491,0.565965,-2.21652, -2.78159,-0.581593,2.92159,0.392266,-0.137293,9.89491
1.73487e+09,1734874279293641183, 1,0.262745,0, -0.25758,-0.301265,0.0248835,-0.0360655,0.699708,-2.51707, -2.83159,-0.541593,2.91159,-0.333426,-0.254973,9.42419
1.73487e+09,1734874279303680088, 1,0.262745,0, -0.251957,-0.299792,0.0244139,0.0450819,0.673598,-2.32923, -2.85159,-0.541593,2.90159,-0.186326,0.509946,9.81646
1.73487e+09,1734874279313682148, 1,0.262745,0, -0.245755,-0.29887,0.0217842,0.0450819,0.797761,-2.74248, -2.83159,-0.571593,2.89159,0.274586,0.00980665,9.96356
1.73487e+09,1734874279323681630, 1,0.262745,0, -0.23949,-0.297671,0.0205632,0.0360655,0.699896,-2.4795, -2.78159,-0.581593,2.89159,0.313813,0.392266,7.89435
1.73487e+09,1734874279333666486, 1,0.262745,0, -0.234061,-0.296336,0.0184969,0.0631146,0.736713,-2.32923, -2.78159,-0.581593,2.89159,0.313813,0.392266,7.89435
1.73487e+09,1734874279343610519, 1,0.262745,0, -0.228967,-0.295,0.0170881,0.00450821,0.616213,-2.08504, -2.75159,-0.581593,2.90159,-0.451106,-0.0588399,9.01231
1.73487e+09,1734874279353682934, 1,0.262745,0, -0.224191,-0.293553,0.0203753,-0.0946719,0.490735,-1.93476, -2.76159,-0.581593,2.90159,-0.529559,0.509946,10.6206
1.73487e+09,1734874279363613452, 1,0.262745,0, -0.219075,-0.291448,0.023099,-0.0540982,0.710227,-2.21652, -2.81159,-0.561593,2.89159,0.892405,0.245166,10.0028
1.73487e+09,1734874279373676443, 1,0.262745,0, -0.213762,-0.290083,0.0222538,0.0315573,0.651527,-2.23531, -2.90159,-0.531593,2.87159,-0.715885,-0.294199,11.5424
1.73487e+09,1734874279383612396, 1,0.262745,0, -0.208429,-0.28861,0.0218781,0.0180327,0.673974,-2.25409, -2.85159,-0.551593,2.87159,-0.26478,-0.333426,11.464
1.73487e+09,1734874279393675053, 1,0.262745,0, -0.202958,-0.287182,0.0215024,-0.00901635,0.682802,-2.29166, -2.77159,-0.551593,2.88159,0.274586,0.745305,8.06107
1.73487e+09,1734874279403626440, 1,0.262745,0, -0.197411,-0.286134,0.0199057,0.0586064,0.660355,-2.27288, -2.75159,-0.531593,2.89159,0.500139,-0.137293,8.09049
1.73487e+09,1734874279413684608, 1,0.262745,0, -0.192257,-0.284497,0.0187787,0,0.69257,-2.14139, -2.76159,-0.501593,2.90159,0.156906,-0.333426,9.97336
1.73487e+09,1734874279423674431, 1,0.262745,0, -0.187053,-0.283141,0.0202814,-0.0631146,0.593202,-2.17896, -2.80159,-0.491593,2.91159,0.274586,0.431493,9.63013
1.73487e+09,1734874279433614035, 1,0.262745,0, -0.181945,-0.28068,0.0246957,-0.0901637,0.629455,-2.14139, -2.86159,-0.471593,2.91159,-0.0686466,0.323619,7.6688
1.73487e+09,1734874279443646059, 1,0.262745,0, -0.176558,-0.278859,0.0261045,-0.0315573,0.696233,-2.31045, -2.89159,-0.491593,2.91159,-0.225553,-0.333426,11.4247
1.73487e+09,1734874279453616537, 1,0.262745,0, -0.171266,-0.276897,0.0273255,-0.0270491,0.6473,-2.17896, -2.89159,-0.491593,2.91159,-0.225553,-0.333426,11.4247
1.73487e+09,1734874279463680946, 1,0.231373,0, -0.166256,-0.27541,0.0282647,-0.0270491,0.602594,-2.10382, -2.86159,-0.551593,2.91159,-0.02942,-0.372653,12.0033
1.73487e+09,1734874279473693968, 1,0.231373,0, -0.161597,-0.274282,0.0273255,0.0495901,0.581086,-1.89719, -2.77159,-0.541593,2.94159,0.11768,0.431493,9.05154
1.73487e+09,1734874279483697671, 1,0.231373,0, -0.15673,-0.27331,0.0251653,0.0405737,0.634245,-2.08504, -2.71159,-0.421593,2.99159,-0.568786,-0.333426,10.9638
1.73487e+09,1734874279493684882, 1,0.223529,0, -0.151755,-0.272059,0.0253531,-0.0135246,0.597992,-2.1226, -2.73159,-0.391593,3.01159,0.500139,0.549172,9.35554
1.73487e+09,1734874279503617751, 1,0.223529,0, -0.146596,-0.270197,0.0273255,-0.04959,0.63387,-2.16017, -2.79159,-0.381593,3.01159,-0.333426,0.353039,9.5811
1.73487e+09,1734874279513674739, 1,0.223529,0, -0.143932,-0.26947,0.0274194,-0.00450819,0.651527,-2.23531, -2.79159,-0.381593,3.01159,-0.333426,0.353039,9.5811
1.73487e+09,1734874279523614325, 1,0.184314,0, -0.135668,-0.267373,0.0263863,-0.00450819,0.651902,-2.16017, -2.86159,-0.431593,3.00159,-0.529559,-0.558979,11.6993
1.73487e+09,1734874279533515338, 1,0.184314,0, -0.130675,-0.266001,0.0264802,0,0.611611,-2.10382, -2.79159,-0.461593,3.01159,0.11768,0.323619,8.70831
1.73487e+09,1734874279543665447, 1,0.184314,0, -0.126044,-0.264636,0.0260106,0.0270491,0.603533,-1.91598, -2.73159,-0.451593,3.02159,0.500139,0.00980665,7.16866
1.73487e+09,1734874279553612727, 1,0.184314,0, -0.121446,-0.262802,0.0256349,0,0.639223,-1.99112, -2.73159,-0.451593,3.02159,0.500139,0.00980665,7.16866
1.73487e+09,1734874279563611289, 1,0.176471,0, -0.116553,-0.261078,0.0264802,-0.0315573,0.6164,-2.04747, -2.73159,-0.431593,3.03159,0.500139,0.166713,10.6206
1.73487e+09,1734874279573637437, 1,0.176471,0, -0.111681,-0.259468,0.0289221,-0.0766391,0.544457,-2.0099, -2.76159,-0.421593,3.02159,0.23536,0.00980665,9.54187
1.73487e+09,1734874279583600361, 1,0.176471,0, -0.107013,-0.257267,0.0321154,-0.0766391,0.634433,-2.04747, -2.80159,-0.411593,3.02159,-0.0686466,0.166713,8.32585
1.73487e+09,1734874279593615321, 1,0.176471,0, -0.101567,-0.255513,0.0326789,0.00901641,0.67341,-2.3668, -2.84159,-0.411593,3.00159,-0.333426,-0.441299,11.8857
1.73487e+09,1734874279603678749, 1,0.176471,0, -0.101567,-0.255513,0.0326789,0.00901641,0.67341,-2.3668, -2.84159,-0.411593,3.00159,-0.333426,-0.441299,11.8857
1.73487e+09,1734874279613613511, 1,0.176471,0, -0.0921015,-0.256079,0.0250714,0.0901637,0.56728,-1.95355, -2.72159,-0.431593,3.02159,0.431493,1.43177,8.56121
1.73487e+09,1734874279623615077, 1,0.176471,0, -0.0878299,-0.255556,0.0216902,0.0856555,0.509895,-1.70935, -2.75159,-0.461593,3.01159,0.578592,-0.02942,10.4245
1.73487e+09,1734874279633687508, 1,0.176471,0, -0.083562,-0.253584,0.018403,0.0631146,0.819926,-1.91598, -2.84159,-0.541593,2.98159,-1.52003,-1.25525,11.9249
1.73487e+09,1734874279643681362, 1,0.176471,0, -0.0784914,-0.248696,0.0203753,-0.0946719,0.886704,-2.08504, -2.96159,-0.541593,2.96159,1.11796,0.549172,8.02184
1.73487e+09,1734874279653677587, 1,0.176471,0, -0.0734548,-0.245934,0.0215024,0.0225409,0.660543,-2.23531, -3.05159,-0.481593,2.95159,0.500139,-1.1768,7.94339
1.73487e+09,1734874279663610739, 1,0.176471,0, -0.0678393,-0.244907,0.019624,0.0360655,0.718304,-2.40437, -3.05159,-0.481593,2.95159,0.500139,-1.1768,7.94339
1.73487e+09,1734874279673611666, 1,0.176471,0, -0.062447,-0.243944,0.0190605,0.00901635,0.59339,-2.14139, -3.06159,-0.431593,2.95159,-1.9123,-0.254973,7.94339
1.73487e+09,1734874279683614594, 1,0.176471,0, -0.0579607,-0.242777,0.019624,-0.00450819,0.545021,-1.89719, -3.02159,-0.401593,2.96159,1.50042,0.549172,11.0031
1.73487e+09,1734874279693631393, 1,0.176471,0, -0.0533401,-0.241558,0.0192483,0.0135245,0.571882,-1.93476, -2.97159,-0.391593,2.96159,0.774725,-0.137293,7.39421
1.73487e+09,1734874279703577710, 1,0.176471,0, -0.0485576,-0.240544,0.0197179,-0.0225409,0.553474,-2.0099, -2.97159,-0.441593,2.97159,1.23564,0.245166,11.5817
1.73487e+09,1734874279713511880, 1,0.176471,0, -0.0436935,-0.239165,0.0209389,-0.00901635,0.620439,-2.14139, -3.01159,-0.441593,2.98159,1.46119,0.00980665,10.856
1.73487e+09,1734874279723608396, 1,0.176471,0, -0.0382769,-0.238352,0.0206571,0.00901638,0.592826,-2.25409, -3.01159,-0.391593,2.99159,-1.0297,-0.558979,9.31632
1.73487e+09,1734874279733660199, 1,0.176471,0, -0.0328975,-0.237899,0.0188726,0.0315573,0.615273,-2.27288, -3.00159,-0.311593,3.01159,0.696272,0.166713,9.78704
1.73487e+09,1734874279743611081, 1,0.176471,0, -0.0276185,-0.236873,0.0182152,0.0225409,0.624665,-2.19774, -2.97159,-0.281593,3.02159,0.353039,-0.137293,8.36507
1.73487e+09,1734874279753658831, 1,0.176471,0, -0.0222693,-0.235913,0.0157732,0.0676228,0.696421,-2.27288, -2.94159,-0.311593,3.04159,0.470719,0.00980665,9.27709
1.73487e+09,1734874279763607608, 1,0.176471,0, -0.0174645,-0.23462,0.0152097,-0.0225409,0.57207,-1.89719, -2.94159,-0.331593,3.05159,0.0882598,-0.17652,9.77723
1.73487e+09,1734874279773600073, 1,0.176471,0, -0.0128472,-0.232977,0.017276,-0.04959,0.571694,-1.97233, -2.94159,-0.331593,3.05159,0.0882598,-0.17652,9.77723
1.73487e+09,1734874279783612858, 1,0.176471,0, -0.00804289,-0.231814,0.0178395,-0.0315573,0.562678,-1.97233, -2.99159,-0.321593,3.05159,0.0490333,-0.02942,9.12018
1.73487e+09,1734874279793656994, 1,0.176471,0, -0.00267351,-0.230796,0.0188726,-0.00901635,0.610483,-2.32923, -3.04159,-0.301593,3.06159,0.774725,-0.215746,10.9344
1.73487e+09,1734874279803657061, 1,0.176471,0, 0.00292685,-0.23008,0.018403,0.0135245,0.641759,-2.38558, -3.03159,-0.291593,3.07159,-0.107873,-0.294199,9.46342
1.73487e+09,1734874279813609004, 1,0.176471,0, 0.00577701,-0.229374,0.0184969,-0.00450822,0.686841,-2.38558, -2.95159,-0.231593,3.09159,0.0490333,-0.17652,10.7775
1.73487e+09,1734874279823680100, 1,0.176471,0, 0.0134853,-0.226887,0.0192483,0.00450819,0.651715,-2.19774, -2.94159,-0.211593,3.10159,0.774725,-0.0980665,9.23786
1.73487e+09,1734874279833608446, 1,0.176471,0, 0.0188929,-0.225543,0.0191544,0,0.638096,-2.21652, -2.95159,-0.201593,3.09159,0.392266,-0.17652,9.51245
1.73487e+09,1734874279843683405, 1,0.176471,0, 0.0239874,-0.224344,0.0199997,-0.0360655,0.593202,-2.17896, -2.97159,-0.211593,3.08159,0.313813,0.0882598,10.4343
1.73487e+09,1734874279853579627, 1,0.176471,0, 0.0292825,-0.223115,0.0218781,-0.0405736,0.570567,-2.19774, -2.97159,-0.211593,3.08159,0.313813,0.0882598,10.4343
1.73487e+09,1734874279863599818, 1,0.176471,0, 0.0345105,-0.222996,0.0203753,0.0540982,0.539104,-2.17896, -2.97159,-0.221593,3.08159,0.353039,-0.0980665,8.31604
1.73487e+09,1734874279873579054, 1,0.176471,0, 0.0397264,-0.223404,0.0185908,0.0315573,0.498624,-2.16017, -2.96159,-0.221593,3.08159,0.921825,0.00980665,9.24767
1.73487e+09,1734874279883617545, 1,0.176471,0, 0.0449858,-0.222541,0.0189665,-0.0225409,0.606633,-2.19774, -2.94159,-0.221593,3.08159,1.39254,0.509946,11.6601
1.73487e+09,1734874279893568555, 1,0.176471,0, 0.0500277,-0.220984,0.0205632,-0.0405737,0.607008,-2.1226, -2.92159,-0.211593,3.09159,-0.451106,-0.17652,12.121
1.73487e+09,1734874279903599678, 1,0.176471,0, 0.0551998,-0.219279,0.0214085,-0.00901638,0.674161,-2.21652, -2.93159,-0.181593,3.09159,0.539366,0.431493,7.98261
1.73487e+09,1734874279913578049, 1,0.176471,0, 0.0602817,-0.217616,0.0220659,-0.0135246,0.643074,-2.1226, -2.93159,-0.161593,3.10159,0.392266,-0.254973,8.86521
1.73487e+09,1734874279923608908, 1,0.176471,0, 0.0657145,-0.216551,0.0224416,-0.0315573,0.597241,-2.27288, -2.90159,-0.201593,3.10159,0.0882598,-0.137293,9.65955
1.73487e+09,1734874279933609046, 1,0.176471,0, 0.0713801,-0.215836,0.0222537,0.0315573,0.614898,-2.34801, -2.90159,-0.221593,3.10159,0.313813,0.284393,9.01231
1.73487e+09,1734874279943681187, 1,0.0980392,0, 0.0771059,-0.215795,0.0203753,0.0450819,0.618936,-2.44193, -2.92159,-0.221593,3.10159,1.07873,-0.0980665,10.6598
1.73487e+09,1734874279953610368, 1,0.0980392,0, 0.0828775,-0.214663,0.0200936,-0.0135245,0.677824,-2.38558, -2.92159,-0.231593,3.09159,0.500139,-0.333426,10.7383
1.73487e+09,1734874279963615113, 1,0.0980392,0, 0.0883984,-0.213426,0.0206571,-0.00901638,0.628892,-2.25409, -2.91159,-0.221593,3.10159,-0.333426,0.0490333,8.8554
1.73487e+09,1734874279973674993, 1,0,0, 0.0932648,-0.212177,0.0211267,-0.0135246,0.589351,-2.04747, -2.92159,-0.181593,3.10159,0.431493,0.0490333,8.27681
1.73487e+09,1734874279983678436, 1,0,0, 0.0983995,-0.210876,0.0225355,-0.0180327,0.592826,-2.25409, -2.93159,-0.171593,3.10159,0.470719,-0.254973,9.42419
1.73487e+09,1734874279993678931, 1,0,0, 0.103709,-0.21035,0.0223477,0.00901638,0.565965,-2.21652, -2.93159,-0.201593,3.09159,0.23536,0.0490333,12.3466
1.73487e+09,1734874280003613325, 1,-0.113726,0, 0.109024,-0.210094,0.0215963,0.0135245,0.53469,-2.16017, -2.93159,-0.201593,3.09159,0.23536,0.0490333,12.3466
1.73487e+09,1734874280013678762, 1,-0.113726,0, 0.114535,-0.209499,0.0203753,0.0360655,0.628516,-2.32923, -2.93159,-0.231593,3.09159,0.11768,-0.02942,9.97336
1.73487e+09,1734874280023654054, 1,-0.113726,0, 0.119933,-0.208844,0.0184969,0.0360655,0.646737,-2.29166, -2.92159,-0.221593,3.09159,0.196133,-0.411879,8.82598
1.73487e+09,1734874280033680709, 1,-0.129412,0, 0.125443,-0.208085,0.0169003,0.0315573,0.633306,-2.27288, -2.90159,-0.191593,3.10159,0.921825,-0.0588399,9.81646
1.73487e+09,1734874280043680530, 1,-0.129412,0, 0.130664,-0.207502,0.0170881,-0.0270491,0.574794,-2.25409, -2.89159,-0.161593,3.11159,0.0882598,0.284393,8.51217
1.73487e+09,1734874280053611982, 1,-0.129412,0, 0.136672,-0.206836,0.0177456,-0.00450819,0.622975,-2.53585, -2.92159,-0.161593,3.11159,-0.608012,-0.480526,9.12999
1.73487e+09,1734874280063701317, 1,-0.129412,0, 0.142929,-0.206274,0.0175577,0,0.672095,-2.62978, -2.96159,-0.151593,3.11159,0.11768,-0.519752,10.8854
1.73487e+09,1734874280073571030, 1,-0.129412,0, 0.148554,-0.20568,0.0181212,0,0.556761,-2.25409, -2.95159,-0.181593,3.11159,-0.0686466,-0.755112,9.70858
1.73487e+09,1734874280083566951, 1,-0.129412,0, 0.153575,-0.205298,0.018403,-0.0270491,0.539292,-2.14139, -2.90159,-0.221593,3.12159,0.500139,-0.519752,10.042
1.73487e+09,1734874280093583996, 1,-0.129412,0, 0.158926,-0.204522,0.0185908,0.0180328,0.539292,-2.14139, -2.87159,-0.241593,-3.14159,0.500139,-0.755112,9.05154
1.73487e+09,1734874280103670227, 1,-0.129412,0, 0.163544,-0.204322,0.0181212,0.00901635,0.513182,-1.95355, -2.87159,-0.241593,-3.14159,0.500139,-0.755112,9.05154
1.73487e+09,1734874280113608508, 1,-0.129412,0, 0.16841,-0.204097,0.0173699,0.0225409,0.499188,-2.04747, -2.85159,-0.231593,-3.12159,-0.186326,-0.862985,12.8467
1.73487e+09,1734874280123678755, 1,-0.129412,0, 0.17392,-0.204717,0.0145523,0.04959,0.542767,-2.34801, -2.86159,-0.221593,-3.11159,-0.02942,-0.755112,10.8167
1.73487e+09,1734874280133678247, 1,-0.129412,0, 0.18025,-0.204379,0.0152097,-0.022541,0.67651,-2.64856, -2.88159,-0.181593,-3.10159,1.0395,-0.676659,8.89463
1.73487e+09,1734874280143677996, 1,-0.129412,0, 0.186087,-0.20427,0.0162428,-0.0270491,0.511116,-2.3668, -2.90159,-0.141593,-3.09159,-0.755112,0.127486,8.77695
1.73487e+09,1734874280153611198, 1,-0.129412,0, 0.191943,-0.203952,0.0175577,-0.0270491,0.582683,-2.4795, -2.92159,-0.151593,-3.07159,0.00980665,-0.372653,10.0126
1.73487e+09,1734874280163608889, 1,-0.129412,0, 0.197793,-0.203311,0.0190604,-0.0405737,0.605506,-2.42315, -2.92159,-0.171593,-3.07159,1.35332,-0.637432,8.59063
1.73487e+09,1734874280173570637, 1,-0.129412,0, 0.202969,-0.202857,0.0211267,-0.0540982,0.476553,-2.06625, -2.90159,-0.201593,-3.07159,1.0395,-0.480526,8.60043
1.73487e+09,1734874280183648884, 1,-0.129412,0, 0.208251,-0.203151,0.0213145,0.00901638,0.448752,-2.21652, -2.88159,-0.221593,-3.07159,0.00980665,-0.372653,9.31632
1.73487e+09,1734874280193660527, 1,-0.129412,0, 0.213614,-0.204092,0.0199057,0.04959,0.44415,-2.23531, -2.87159,-0.261593,-3.07159,1.15718,-0.254973,11.8857
1.73487e+09,1734874280203692354, 1,-0.129412,0, 0.21863,-0.204622,0.0187787,0.00901637,0.476365,-2.10382, -2.87159,-0.271593,-3.07159,-0.107873,-0.941438,14.455
1.73487e+09,1734874280213705641, 1,-0.129412,0, 0.224197,-0.204539,0.0186848,0.00450822,0.551595,-2.38558, -2.87159,-0.271593,-3.07159,-0.107873,-0.941438,14.455
